{
  "STTG": {
    "VenueCode": "STTG",
    "VenueName": "Shri Shivaji Talkies: Talegaon",
    "VenueAddress": "820, Somwar peth, Talegaon Dabhade, Pune, Maharashtra 410506, India",
    "City": "Pune",
    "State": "Maharashtra",
    "RegionCode": "PUNE",
    "SubRegionCode": "PUNE",
    "Latitude": "18.721",
    "Longitude": "73.6873",
    "AvailableFormats": "2D"
  },
  "CTRD": {
    "VenueCode": "CTRD",
    "VenueName": "City Pride: R Deccan",
    "VenueAddress": "2nd Floor, R Deccan Mall, Jangli Maharaj Road, Opp Deccan Bus Stand, Pune, Maharashtra 411004, India",
    "City": "Pune",
    "State": "Maharashtra",
    "RegionCode": "PUNE",
    "SubRegionCode": "PUNE",
    "Latitude": "18.5165",
    "Longitude": "73.8423",
    "AvailableFormats": "2D"
  },
  "PUVB": {
    "VenueCode": "PUVB",
    "VenueName": "Cinepolis: VIP Seasons Mall, Pune",
    "VenueAddress": "Magarpatta Police Station Road, Hadapsar, Pune, Maharashtra 411028, India",
    "City": "Pune",
    "State": "Maharashtra",
    "RegionCode": "PUNE",
    "SubRegionCode": "PUNE",
    "Latitude": "18.5192",
    "Longitude": "73.9297",
    "AvailableFormats": "2D|3D"
  },
  "ESVP": {
    "VenueCode": "ESVP",
    "VenueName": "Victory Theatre: Camp, Pune",
    "VenueAddress": "2429, Gen Thimayya Road, Camp, opposite Kayani Bakery, Pune, Maharashtra 411001, India",
    "City": "Pune",
    "State": "Maharashtra",
    "RegionCode": "PUNE",
    "SubRegionCode": "PUNE",
    "Latitude": "18.511",
    "Longitude": "73.8801",
    "AvailableFormats": "2D"
  },
  "CPFT": {
    "VenueCode": "CPFT",
    "VenueName": "Fun Time Multiplex: Sinhagad Road",
    "VenueAddress": "Near Manik Baug Petrol Pump, Sinhagad Road, Pune, Maharashtra 411041, India",
    "City": "Pune",
    "State": "Maharashtra",
    "RegionCode": "PUNE",
    "SubRegionCode": "PUNE",
    "Latitude": "18.4686",
    "Longitude": "73.8198",
    "AvailableFormats": "3D|2D"
  },
  "LCPC": {
    "VenueCode": "LCPC",
    "VenueName": "Laxmi Cineplex: Narayangaon",
    "VenueAddress": "Telephone Exchange Road, Narayan Gaon, Near Shinde Market, Pune, Maharashtra 410504, India",
    "City": "Pune",
    "State": "Maharashtra",
    "RegionCode": "PUNE",
    "SubRegionCode": "PUNE",
    "Latitude": "19.1187",
    "Longitude": "73.9729",
    "AvailableFormats": "2D"
  },
  "VBCT": {
    "VenueCode": "VBCT",
    "VenueName": "Vaibhav Chitramandir: Hadapsar",
    "VenueAddress": "No 21, Hadapsar, Pune Solapur Road, Near Canara Bank, Pune, Maharashtra 411028, India",
    "City": "Pune",
    "State": "Maharashtra",
    "RegionCode": "PUNE",
    "SubRegionCode": "PUNE",
    "Latitude": "18.5014",
    "Longitude": "73.93",
    "AvailableFormats": "2D"
  },
  "FSCW": {
    "VenueCode": "FSCW",
    "VenueName": "Funsquare Cinema: Ghotawade Phata",
    "VenueAddress": "Ghotawade Phata, Pirangut, Pune, Maharashtra 412115, India",
    "City": "Pune",
    "State": "Maharashtra",
    "RegionCode": "PUNE",
    "SubRegionCode": "PUNE",
    "Latitude": "18.5125",
    "Longitude": "73.6747",
    "AvailableFormats": "2D"
  },
  "VCMP": {
    "VenueCode": "VCMP",
    "VenueName": "Vikas Cinema: Manchar",
    "VenueAddress": "Tal: Ambegaon, At Post Manchar, Shivaji Chowk, Pune, Maharashtra 410503, India",
    "City": "Pune",
    "State": "Maharashtra",
    "RegionCode": "PUNE",
    "SubRegionCode": "PUNE",
    "Latitude": "19.003",
    "Longitude": "73.9435",
    "AvailableFormats": "2D"
  },
  "ASHC": {
    "VenueCode": "ASHC",
    "VenueName": "Ashok Theatre: Pimpri",
    "VenueAddress": "Shastri Nagar, Pimpri Colony, Pune, Maharashtra 411017, India",
    "City": "Pune",
    "State": "Maharashtra",
    "RegionCode": "PUNE",
    "SubRegionCode": "PUNE",
    "Latitude": "18.6148",
    "Longitude": "73.8039",
    "AvailableFormats": "2D"
  },
  "VLCX": {
    "VenueCode": "VLCX",
    "VenueName": "Vilux Talkies: Khadki",
    "VenueAddress": "New Excelsior Complex, Elphinston Road, Khadki Bazar, Khadki, Pune, Maharashtra 411003, India",
    "City": "Pune",
    "State": "Maharashtra",
    "RegionCode": "PUNE",
    "SubRegionCode": "PUNE",
    "Latitude": "18.5651",
    "Longitude": "73.8504",
    "AvailableFormats": "2D"
  },
  "SHEV": {
    "VenueCode": "SHEV",
    "VenueName": "Shevanta Cinema: Junnar",
    "VenueAddress": "Delhi Peth, Junnar, Near Old Bus Stop, Pune, Maharashtra 410502, India",
    "City": "Pune",
    "State": "Maharashtra",
    "RegionCode": "PUNE",
    "SubRegionCode": "PUNE",
    "Latitude": "19.207",
    "Longitude": "73.8823",
    "AvailableFormats": "2D"
  },
  "APCO": {
    "VenueCode": "APCO",
    "VenueName": "Archana Palace Cinemall: Orai",
    "VenueAddress": "NH 25, New Patel Nagar, Near Busy Beans Cafe, Orai, Uttar Pradesh 285001, India",
    "City": "Orai",
    "State": "Uttar Pradesh",
    "RegionCode": "ORAI",
    "SubRegionCode": "ORAI",
    "Latitude": "25.9978",
    "Longitude": "79.4623",
    "AvailableFormats": "2D"
  },
  "SILC": {
    "VenueCode": "SILC",
    "VenueName": "Sanskuruti Cinema: Umergam",
    "VenueAddress": "Plot No-177, Krishna Signature Mall, GIDC Colony, Near State Bank ATM, Umergam, Gujarat 396165, India",
    "City": "Umergam",
    "State": "Gujarat",
    "RegionCode": "UMER",
    "SubRegionCode": "UMER",
    "Latitude": "20.1563",
    "Longitude": "72.7858",
    "AvailableFormats": "2D"
  },
  "SNMR": {
    "VenueCode": "SNMR",
    "VenueName": "SS Cineplex: Amalner",
    "VenueAddress": "Above Hotel Midtown, Subhash Chawk, Jalgaon, Amalner, Maharashtra 425401, India",
    "City": "Amalner",
    "State": "Maharashtra",
    "RegionCode": "AMLN",
    "SubRegionCode": "AMLN",
    "Latitude": "21.0456",
    "Longitude": "75.0636",
    "AvailableFormats": "2D"
  },
  "KYBO": {
    "VenueCode": "KYBO",
    "VenueName": "Kavitha Theatre: Bommidi",
    "VenueAddress": "Bommudi Pappiredipatti Road, Near Raja Hospital, Bommidi, Tamil Nadu 635301, India",
    "City": "Bommidi",
    "State": "Tamil Nadu",
    "RegionCode": "BOMM",
    "SubRegionCode": "BOMM",
    "Latitude": "11.9791",
    "Longitude": "78.2513",
    "AvailableFormats": "2D"
  },
  "SATK": {
    "VenueCode": "SATK",
    "VenueName": "Sagara Theatre 4K Atmos: Kattappana",
    "VenueAddress": "Erattayar Thovala Road, Puliyamala, Near South Indian Bank, Kattappana, Kerala 685508, India",
    "City": "Kattappana",
    "State": "Kerala",
    "RegionCode": "IDKI",
    "SubRegionCode": "IDKI",
    "Latitude": "9.7586",
    "Longitude": "77.1166",
    "AvailableFormats": "2D"
  },
  "SSCS": {
    "VenueCode": "SSCS",
    "VenueName": "Santhosh Cinema Dolby 7.1: Kattappana",
    "VenueAddress": "Santhosh Cinema, Kattappana, Near Kerala Public Service Commission District Office, Kattappana, Kerala 685508, India",
    "City": "Kattappana",
    "State": "Kerala",
    "RegionCode": "IDKI",
    "SubRegionCode": "IDKI",
    "Latitude": "9.7535",
    "Longitude": "77.1163",
    "AvailableFormats": "2D"
  },
  "CLSB": {
    "VenueCode": "CLSB",
    "VenueName": "Connplex Cinemas (Luxuriance): Siwan",
    "VenueAddress": "Chandrika Tower, Gaushala Road, Pakdi Bus Stand, Siwan, Bihar 841226, India",
    "City": "Siwan",
    "State": "Bihar",
    "RegionCode": "SWNB",
    "SubRegionCode": "SWNB",
    "Latitude": "26.2307",
    "Longitude": "84.3694",
    "AvailableFormats": "2D"
  },
  "KMJR": {
    "VenueCode": "KMJR",
    "VenueName": "Khushi Multiplex: Jintur",
    "VenueAddress": "Jalna, Jintur Road, Jintur, Maharashtra 431509, India",
    "City": "Jintur",
    "State": "Maharashtra",
    "RegionCode": "PARB",
    "SubRegionCode": "PARB",
    "Latitude": "19.5956",
    "Longitude": "76.6741",
    "AvailableFormats": "2D"
  },
  "FSCK": {
    "VenueCode": "FSCK",
    "VenueName": "INOX: South City, Kolkata",
    "VenueAddress": "375, South City Mall, Prince Anwar Shah Road, Opposite Central Bank of India, Kolkata, West Bengal 700068, India",
    "City": "Kolkata",
    "State": "West Bengal",
    "RegionCode": "KOLK",
    "SubRegionCode": "KOLK",
    "Latitude": "22.5014",
    "Longitude": "88.3616",
    "AvailableFormats": "2D|IMAX 2D|3D"
  },
  "NNKA": {
    "VenueCode": "NNKA",
    "VenueName": "Nandan: Kolkata",
    "VenueAddress": "Nandan West Bengal Film Centre, 1/1, A.J.C. Bose Road, Near West Bengal Bangla Academy, Kolkata, West Bengal 700020, India",
    "City": "Kolkata",
    "State": "West Bengal",
    "RegionCode": "KOLK",
    "SubRegionCode": "KOLK",
    "Latitude": "22.5423",
    "Longitude": "88.3456",
    "AvailableFormats": "2D"
  },
  "CLMK": {
    "VenueCode": "CLMK",
    "VenueName": "Cinepolis: Lake Mall, Kolkata",
    "VenueAddress": "5th Floor Lake mall, Rash behari Avenue Road, 104- Rashbehari Avenue, Kolkata, West Bengal 700026, India",
    "City": "Kolkata",
    "State": "West Bengal",
    "RegionCode": "KOLK",
    "SubRegionCode": "KOLK",
    "Latitude": "22.5167",
    "Longitude": "88.3489",
    "AvailableFormats": "2D|3D"
  },
  "DMPZ": {
    "VenueCode": "DMPZ",
    "VenueName": "PVR: Diamond Plaza, Jessore Kolkata",
    "VenueAddress": "Diamond City Mall,5 Floor, 68, Jessore Rd, Satgachi, Jagat Banerjee Ghat Road, Kolkata, West Bengal 700055, India",
    "City": "Kolkata",
    "State": "West Bengal",
    "RegionCode": "KOLK",
    "SubRegionCode": "KOLK",
    "Latitude": "22.6153",
    "Longitude": "88.4126",
    "AvailableFormats": "2D|3D"
  },
  "INQM": {
    "VenueCode": "INQM",
    "VenueName": "INOX: Quest Mall",
    "VenueAddress": "4th Floor,Quest Mall, Syed Amir Ali Avenue, Opposite Our Lady Queen Of The Missions School, Kolkata, West Bengal 700017, India",
    "City": "Kolkata",
    "State": "West Bengal",
    "RegionCode": "BARR",
    "SubRegionCode": "BARR",
    "Latitude": "22.5393",
    "Longitude": "88.3657",
    "AvailableFormats": "2D|3D"
  },
  "CAML": {
    "VenueCode": "CAML",
    "VenueName": "Cinepolis: Acropolis Mall, Kolkata",
    "VenueAddress": "3rd Floor, Acropolis Mall, 1858 Rajdanga Main Road, Beside Geetanjali stadium, Kolkata, West Bengal 700107, India",
    "City": "Kolkata",
    "State": "West Bengal",
    "RegionCode": "KOLK",
    "SubRegionCode": "KOLK",
    "Latitude": "22.5147",
    "Longitude": "88.3932",
    "AvailableFormats": "3D|2D"
  },
  "INRK": {
    "VenueCode": "INRK",
    "VenueName": "INOX: City Centre II, Rajarhat",
    "VenueAddress": "3rd Floor,City Center 2 Mall, New Town, Rajarhat, Hatiara, Near Chinar Park, Kolkata, West Bengal 700157, India",
    "City": "Kolkata",
    "State": "West Bengal",
    "RegionCode": "KOLK",
    "SubRegionCode": "KOLK",
    "Latitude": "22.623",
    "Longitude": "88.4505",
    "AvailableFormats": "2D|3D"
  },
  "IMKN": {
    "VenueCode": "IMKN",
    "VenueName": "INOX: Star Mall, Madhyamgram",
    "VenueAddress": "3rd Floor, Star Mall, 74/Mall/1 Jessore Road (North), Sisir Kunja,Madhyamgram, Kolkata, West Bengal 700129, India",
    "City": "Kolkata",
    "State": "West Bengal",
    "RegionCode": "KOLK",
    "SubRegionCode": "KOLK",
    "Latitude": "22.7032",
    "Longitude": "88.4718",
    "AvailableFormats": "2D|3D"
  },
  "SVNR": {
    "VenueCode": "SVNR",
    "VenueName": "SVF Cinemas: Wood Square Mall, Narendrapur",
    "VenueAddress": "Wood Square Mall, 169, Netaji Subhas Bose Road, Narendrapur, Kolkata, West Bengal 700103, India",
    "City": "Kolkata",
    "State": "West Bengal",
    "RegionCode": "KOLK",
    "SubRegionCode": "KOLK",
    "Latitude": "22.4397",
    "Longitude": "88.3971",
    "AvailableFormats": "2D|3D"
  },
  "INSL": {
    "VenueCode": "INSL",
    "VenueName": "INOX: City Center, Salt Lake",
    "VenueAddress": "City Centre, DC Block I, Sector-1, City Center Mall, Kolkata, West Bengal 700020, India",
    "City": "Kolkata",
    "State": "West Bengal",
    "RegionCode": "BARR",
    "SubRegionCode": "BARR",
    "Latitude": "22.589",
    "Longitude": "88.4082",
    "AvailableFormats": "2D|3D"
  },
  "MSMA": {
    "VenueCode": "MSMA",
    "VenueName": "PVR: Mani Square Mall, Kolkata",
    "VenueAddress": "Mani Square Mall,Plot No 164/1, EM Bypass Road, Beside Apollo Gleaneagles Hospital, Kolkata, West Bengal 700054, India",
    "City": "Kolkata",
    "State": "West Bengal",
    "RegionCode": "KOLK",
    "SubRegionCode": "KOLK",
    "Latitude": "22.5777",
    "Longitude": "88.4008",
    "AvailableFormats": "2D|3D"
  },
  "MCKK": {
    "VenueCode": "MCKK",
    "VenueName": "Miraj Cinemas: Newtown, Kolkata",
    "VenueAddress": "The Terminus Bulding, Plot No. BG/12, AA-1B, New Town, Rajarhat, Kolkata, West Bengal 700156, India",
    "City": "Kolkata",
    "State": "West Bengal",
    "RegionCode": "KOLK",
    "SubRegionCode": "KOLK",
    "Latitude": "22.5816",
    "Longitude": "88.4627",
    "AvailableFormats": "2D|3D"
  },
  "FCHP": {
    "VenueCode": "FCHP",
    "VenueName": "INOX: Hiland Park",
    "VenueAddress": "Metropolis Mall Hiland Park, Eastern Metropolitan Bypass Chakgaria, Opp Peerless Hospital, Kolkata, West Bengal 700020, India",
    "City": "Kolkata",
    "State": "West Bengal",
    "RegionCode": "KOLK",
    "SubRegionCode": "KOLK",
    "Latitude": "22.4832",
    "Longitude": "88.3909",
    "AvailableFormats": "2D|3D"
  },
  "SFCR": {
    "VenueCode": "SFCR",
    "VenueName": "SVF Cinemas: Howrah",
    "VenueAddress": "6th Floor, Platina Mall, Nityadhan Mukherjee Road, Opposite Howrah Maidan Metro Station, Howrah, West Bengal 711101, India",
    "City": "Howrah",
    "State": "West Bengal",
    "RegionCode": "HWRH",
    "SubRegionCode": "HWRH",
    "Latitude": "22.5814",
    "Longitude": "88.3328",
    "AvailableFormats": "2D|3D"
  },
  "NACK": {
    "VenueCode": "NACK",
    "VenueName": "Navina Cinema: Tollygunge",
    "VenueAddress": "85, Prince Anwar Shah Road, Tollygunge, Rajendra Prasad Colony, Kolkata, West Bengal 700033, India",
    "City": "Kolkata",
    "State": "West Bengal",
    "RegionCode": "KOLK",
    "SubRegionCode": "KOLK",
    "Latitude": "22.5009",
    "Longitude": "88.3486",
    "AvailableFormats": "2D"
  },
  "PVAK": {
    "VenueCode": "PVAK",
    "VenueName": "PVR: Avani, Kolkata",
    "VenueAddress": "Avani River Side Mall, Jagat Benarjee Ghat Road, Howrah, Kolkata, West Bengal 711102, India",
    "City": "Kolkata",
    "State": "West Bengal",
    "RegionCode": "KOLK",
    "SubRegionCode": "KOLK",
    "Latitude": "22.5637",
    "Longitude": "88.3241",
    "AvailableFormats": "2D|3D"
  },
  "INER": {
    "VenueCode": "INER",
    "VenueName": "INOX: Forum Mall, Elgin Road",
    "VenueAddress": "Lala Lajpat, Rai Sarani, Bhawanipur, Kolkata, West Bengal 700020, India",
    "City": "Kolkata",
    "State": "West Bengal",
    "RegionCode": "KOLK",
    "SubRegionCode": "KOLK",
    "Latitude": "22.5386",
    "Longitude": "88.3515",
    "AvailableFormats": "2D|3D"
  },
  "RDBK": {
    "VenueCode": "RDBK",
    "VenueName": "RDB Cinemas: Salt Lake, Kolkata",
    "VenueAddress": "Plot K-1, Block EP - GP, Sector-5, Salt Lake, Behind Infinity Building, Kolkata, West Bengal 700091, India",
    "City": "Kolkata",
    "State": "West Bengal",
    "RegionCode": "KOLK",
    "SubRegionCode": "KOLK",
    "Latitude": "22.5686",
    "Longitude": "88.4331",
    "AvailableFormats": "2D"
  },
  "SVFN": {
    "VenueCode": "SVFN",
    "VenueName": "Nazrultirtha Cinema: Kolkata",
    "VenueAddress": "Biswa Bangla Sarani, Service Road, Kolkata, West Bengal 700156, India",
    "City": "Kolkata",
    "State": "West Bengal",
    "RegionCode": "KOLK",
    "SubRegionCode": "KOLK",
    "Latitude": "22.582",
    "Longitude": "88.4484",
    "AvailableFormats": "2D|3D"
  },
  "IFRM": {
    "VenueCode": "IFRM",
    "VenueName": "INOX: Forum Rangoli Mall, Belur",
    "VenueAddress": "212, Girish Ghosh Road, Belur, Howrah, Kolkata, West Bengal 711202, India",
    "City": "Kolkata",
    "State": "West Bengal",
    "RegionCode": "KOLK",
    "SubRegionCode": "KOLK",
    "Latitude": "22.6242",
    "Longitude": "88.3537",
    "AvailableFormats": "2D|3D"
  },
  "ATCK": {
    "VenueCode": "ATCK",
    "VenueName": "Atindra Cinema: Barrackpore",
    "VenueAddress": "91-73, Ghosh Para Road, North 24Pgs, Barrackpore, Near Barrackpore Railway Station, Kolkata, West Bengal 700120, India",
    "City": "Kolkata",
    "State": "West Bengal",
    "RegionCode": "BARR",
    "SubRegionCode": "BARR",
    "Latitude": "22.7641",
    "Longitude": "88.3696",
    "AvailableFormats": "3D|2D"
  },
  "ASKO": {
    "VenueCode": "ASKO",
    "VenueName": "Asoka Cinema: Behala",
    "VenueAddress": "No. 905/2, Diamond Harbour Road, Arcadia, Behala, Kolkata, West Bengal 700034, India",
    "City": "Kolkata",
    "State": "West Bengal",
    "RegionCode": "KOLK",
    "SubRegionCode": "KOLK",
    "Latitude": "22.4937",
    "Longitude": "88.3166",
    "AvailableFormats": "3D|2D"
  },
  "STKT": {
    "VenueCode": "STKT",
    "VenueName": "Binodini Theatre (Star Theatre): Kolkata",
    "VenueAddress": "79/3/4, Bidhan Sarani, Beadon Street, Sovabazar, Goa Bagan, Kolkata, West Bengal 700006, India",
    "City": "Kolkata",
    "State": "West Bengal",
    "RegionCode": "BARR",
    "SubRegionCode": "BARR",
    "Latitude": "22.5939",
    "Longitude": "88.3709",
    "AvailableFormats": "2D"
  },
  "SVFB": {
    "VenueCode": "SVFB",
    "VenueName": "SVF Cinemas: Baruipur Show House",
    "VenueAddress": "Baruipur Show House, Puratan Bazaar, South 24 Pgs, Subuddhipur, Kolkata, West Bengal 700144, India",
    "City": "Kolkata",
    "State": "West Bengal",
    "RegionCode": "KOLK",
    "SubRegionCode": "KOLK",
    "Latitude": "22.3486",
    "Longitude": "88.4393",
    "AvailableFormats": "3D|2D"
  },
  "INKS": {
    "VenueCode": "INKS",
    "VenueName": "INOX: Swabhumi, Maulana Azad Sarani",
    "VenueAddress": "INOX Leisure Ltd, 89C, Moulana Abul Kalam Azad Sarani, Kolkata, West Bengal 700054, India",
    "City": "Kolkata",
    "State": "West Bengal",
    "RegionCode": "KOLK",
    "SubRegionCode": "KOLK",
    "Latitude": "22.5712",
    "Longitude": "88.4011",
    "AvailableFormats": "2D|3D"
  },
  "PCRA": {
    "VenueCode": "PCRA",
    "VenueName": "Priya Cinema: Rashbehari Avenue",
    "VenueAddress": "Building No. 95, Rash Behari Avenue, Manoharpukur, Kalighat, Opposite State Bank Of India, Kolkata, West Bengal 700029, India",
    "City": "Kolkata",
    "State": "West Bengal",
    "RegionCode": "KOLK",
    "SubRegionCode": "KOLK",
    "Latitude": "22.518",
    "Longitude": "88.3543",
    "AvailableFormats": "2D"
  },
  "ATJA": {
    "VenueCode": "ATJA",
    "VenueName": "SSR Ajanta Cinema: Behala",
    "VenueAddress": "No.30, Diamond Harbour Road, Barabagan, Naskarpur, Behala, Kolkata, West Bengal 700038, India",
    "City": "Kolkata",
    "State": "West Bengal",
    "RegionCode": "BARR",
    "SubRegionCode": "BARR",
    "Latitude": "22.5081",
    "Longitude": "88.3203",
    "AvailableFormats": "2D|3D"
  },
  "IMJN": {
    "VenueCode": "IMJN",
    "VenueName": "INOX: Metro, Jawaharlal Nehru Road",
    "VenueAddress": "INOX Leisure Ltd., 5, Jawaharlal Nehru Road, 4th Floor, Kolkata, West Bengal 700013, India",
    "City": "Kolkata",
    "State": "West Bengal",
    "RegionCode": "KOLK",
    "SubRegionCode": "KOLK",
    "Latitude": "22.5645",
    "Longitude": "88.3516",
    "AvailableFormats": "2D|3D"
  },
  "INHD": {
    "VenueCode": "INHD",
    "VenueName": "Hind INOX: Kolkata",
    "VenueAddress": "76, Ganesh Chandra Avenue, Bow Bazaar, Dharmatala, Near Chandni Chowk Metro Station, Kolkata, West Bengal 700013, India",
    "City": "Kolkata",
    "State": "West Bengal",
    "RegionCode": "KOLK",
    "SubRegionCode": "KOLK",
    "Latitude": "22.5649",
    "Longitude": "88.3592",
    "AvailableFormats": "2D"
  },
  "BARA": {
    "VenueCode": "BARA",
    "VenueName": "Bioscope: Axis Mall, Rajarhat",
    "VenueAddress": "4TH Floor, Axis Mall, 1C, 11, CF Block(Newtown), Action Area 1C, CF-9 New Town, Rajarhat, Near Novotel Kolkata Hotel And Residences, Kolkata, West Bengal 700156, India",
    "City": "Kolkata",
    "State": "West Bengal",
    "RegionCode": "KOLK",
    "SubRegionCode": "KOLK",
    "Latitude": "22.5794",
    "Longitude": "88.4595",
    "AvailableFormats": "2D"
  },
  "MCSL": {
    "VenueCode": "MCSL",
    "VenueName": "Miraj Cinemas: Salt Lake, DownTown Mall, Kolkata",
    "VenueAddress": "No 177 and 178, Downtown Mall, IB Block, Sector 3, Kolkata, West Bengal 700106, India",
    "City": "Kolkata",
    "State": "West Bengal",
    "RegionCode": "KOLK",
    "SubRegionCode": "KOLK",
    "Latitude": "22.5734",
    "Longitude": "88.4138",
    "AvailableFormats": "2D|3D"
  },
  "RTOY": {
    "VenueCode": "RTOY",
    "VenueName": "Radha Studio: Tollygunge",
    "VenueAddress": "Cinema Centenary Building, 72, Deshpran Sasmal Road,Tollygunge, Kolkata, West Bengal 700033, India",
    "City": "Kolkata",
    "State": "West Bengal",
    "RegionCode": "KOLK",
    "SubRegionCode": "KOLK",
    "Latitude": "22.4987",
    "Longitude": "88.3464",
    "AvailableFormats": "2D"
  },
  "MENO": {
    "VenueCode": "MENO",
    "VenueName": "Menoka Cinema: Kolkata",
    "VenueAddress": "5, Sarat Chatterjee Avenue, Sarat Bose Road, , Kalighat, Near Deshopriya Park, Kolkata, West Bengal 700029, India",
    "City": "Kolkata",
    "State": "West Bengal",
    "RegionCode": "KOLK",
    "SubRegionCode": "KOLK",
    "Latitude": "22.5112",
    "Longitude": "88.3507",
    "AvailableFormats": "2D"
  },
  "PUDM": {
    "VenueCode": "PUDM",
    "VenueName": "PVR: Uniworld Downtown Mall, New Town, Kolkata",
    "VenueAddress": "Down town Retail Mall, Uniworld City, Action Area III, Kolkata, West Bengal 700160, India",
    "City": "Kolkata",
    "State": "West Bengal",
    "RegionCode": "KOLK",
    "SubRegionCode": "KOLK",
    "Latitude": "22.5591",
    "Longitude": "88.4952",
    "AvailableFormats": "2D"
  },
  "PRCN": {
    "VenueCode": "PRCN",
    "VenueName": "Prachi Cinema: Kolkata",
    "VenueAddress": "124/A, A.J.C Bose Road, Near Music Channel, Kolkata, West Bengal 700014, India",
    "City": "Kolkata",
    "State": "West Bengal",
    "RegionCode": "KOLK",
    "SubRegionCode": "KOLK",
    "Latitude": "22.5649",
    "Longitude": "88.3683",
    "AvailableFormats": "2D"
  },
  "JMJR": {
    "VenueCode": "JMJR",
    "VenueName": "Jaya Cinemas: City Mall, Barasat",
    "VenueAddress": "1/3 Jessore Road, Barasat, Near Duck Banglow More, Kolkata, West Bengal 700124, India",
    "City": "Kolkata",
    "State": "West Bengal",
    "RegionCode": "BSRT",
    "SubRegionCode": "BSRT",
    "Latitude": "22.7127",
    "Longitude": "88.4753",
    "AvailableFormats": "2D|3D"
  },
  "SSGK": {
    "VenueCode": "SSGK",
    "VenueName": "SSR Globe Cinemas: New Market, Kolkata",
    "VenueAddress": "Globe Mall, 7e, Lindsay Street, Dharmatala, Taltala, Kolkata, West Bengal 700087, India",
    "City": "Kolkata",
    "State": "West Bengal",
    "RegionCode": "KOLK",
    "SubRegionCode": "KOLK",
    "Latitude": "22.5591",
    "Longitude": "88.3525",
    "AvailableFormats": "2D|3D"
  },
  "SSRL": {
    "VenueCode": "SSRL",
    "VenueName": "SSR Cinemas: Maheshtala",
    "VenueAddress": "Purti Plaza, 2nd Floor, Budge Budge Trunk Road, Jalkal, Maheshtala City, Kolkata, West Bengal 700141, India",
    "City": "Kolkata",
    "State": "West Bengal",
    "RegionCode": "KOLK",
    "SubRegionCode": "KOLK",
    "Latitude": "22.51",
    "Longitude": "88.2633",
    "AvailableFormats": "3D|2D"
  },
  "JYKL": {
    "VenueCode": "JYKL",
    "VenueName": "Jayanti Cinema: Barrackpore",
    "VenueAddress": "2, B.T Road, Barrackpore Chiriamore, North 24 Parganas, Near Samanta Automobiles and SBI Railway Station Branch, Kolkata, West Bengal 700120, India",
    "City": "Kolkata",
    "State": "West Bengal",
    "RegionCode": "KOLK",
    "SubRegionCode": "KOLK",
    "Latitude": "22.7609",
    "Longitude": "88.3668",
    "AvailableFormats": "3D|2D"
  },
  "ACNB": {
    "VenueCode": "ACNB",
    "VenueName": "SSR Cinemas, Suncity Mall: Barasat",
    "VenueAddress": "Bus Stand, 125/1, Jessore Road, Champadali, Barasat, West Bengal 700124, India",
    "City": "Barasat",
    "State": "West Bengal",
    "RegionCode": "BSRT",
    "SubRegionCode": "BSRT",
    "Latitude": "22.7199",
    "Longitude": "88.4875",
    "AvailableFormats": "2D|3D"
  },
  "SONP": {
    "VenueCode": "SONP",
    "VenueName": "Sonali Cinema: Dunlop",
    "VenueAddress": "140, Barrackpore Trunk Road, Narendra Nagar, Dakshineswar, Kolkata, West Bengal 700108, India",
    "City": "Kolkata",
    "State": "West Bengal",
    "RegionCode": "BARR",
    "SubRegionCode": "BARR",
    "Latitude": "22.6531",
    "Longitude": "88.3782",
    "AvailableFormats": "2D"
  },
  "EMCI": {
    "VenueCode": "EMCI",
    "VenueName": "Elora Multiplex: Champahati",
    "VenueAddress": "Baruipur - Champahati Road, Opposite State Bank of India, Kolkata, West Bengal 743330, India",
    "City": "Kolkata",
    "State": "West Bengal",
    "RegionCode": "BARR",
    "SubRegionCode": "BARR",
    "Latitude": "22.3973",
    "Longitude": "88.4883",
    "AvailableFormats": "2D"
  },
  "MRJH": {
    "VenueCode": "MRJH",
    "VenueName": "Miraj Cinemas: Howrah",
    "VenueAddress": "Aurobino Mall,3rd Floor, Sri Arabinda Road, Babudanga, Bandhaghat, Howrah, West Bengal 711106, India",
    "City": "Howrah",
    "State": "West Bengal",
    "RegionCode": "HWRH",
    "SubRegionCode": "HWRH",
    "Latitude": "22.6017",
    "Longitude": "88.3452",
    "AvailableFormats": "3D|2D"
  },
  "NECA": {
    "VenueCode": "NECA",
    "VenueName": "New Empire Cinema: Kolkata",
    "VenueAddress": "1 and 2, Humayun Place, New Market Area, Dharmatala, Taltala, Kolkata, West Bengal 700087, India",
    "City": "Kolkata",
    "State": "West Bengal",
    "RegionCode": "KOLK",
    "SubRegionCode": "KOLK",
    "Latitude": "22.5605",
    "Longitude": "88.3515",
    "AvailableFormats": "2D"
  },
  "BJLC": {
    "VenueCode": "BJLC",
    "VenueName": "Bijoli Cinema: Kolkata",
    "VenueAddress": "No.39, Shyama Prasad Mukherjee Road, Jatin Das Park, Patuapara, Bhawanipur, Kolkata, West Bengal 700025, India",
    "City": "Kolkata",
    "State": "West Bengal",
    "RegionCode": "KOLK",
    "SubRegionCode": "KOLK",
    "Latitude": "22.5269",
    "Longitude": "88.3459",
    "AvailableFormats": "2D"
  },
  "BASU": {
    "VenueCode": "BASU",
    "VenueName": "Basusree Cinema: Kolkata",
    "VenueAddress": "102, S. P. Mukherjee Road, Near Jatin Das Metro Station, Kolkata, West Bengal 700026, India",
    "City": "Kolkata",
    "State": "West Bengal",
    "RegionCode": "BARR",
    "SubRegionCode": "BARR",
    "Latitude": "22.5226",
    "Longitude": "88.346",
    "AvailableFormats": "2D"
  },
  "RUPI": {
    "VenueCode": "RUPI",
    "VenueName": "Rupmandir Cinema: Belgharia",
    "VenueAddress": "40, Indrapuri, Beehive Garden, Near Feeder Road Viraat Bazaar, Kolkata, West Bengal 700056, India",
    "City": "Kolkata",
    "State": "West Bengal",
    "RegionCode": "KOLK",
    "SubRegionCode": "KOLK",
    "Latitude": "22.6606",
    "Longitude": "88.3889",
    "AvailableFormats": "2D"
  },
  "LCBK": {
    "VenueCode": "LCBK",
    "VenueName": "Lali Cinema: Barasat",
    "VenueAddress": "Krishnanagar Road, Norpara Halabot Tala, Barasat, Opposite Union Bank Of India Barasat Branch, Kolkata, West Bengal 700125, India",
    "City": "Kolkata",
    "State": "West Bengal",
    "RegionCode": "BSRT",
    "SubRegionCode": "BSRT",
    "Latitude": "22.7273",
    "Longitude": "88.48",
    "AvailableFormats": "2D"
  },
  "PMAC": {
    "VenueCode": "PMAC",
    "VenueName": "Padma Cinema: Kolkata",
    "VenueAddress": "Barasat Road, Sodepur, Anandalok, North 24 Paraganas, Kolkata, West Bengal 700110, India",
    "City": "Kolkata",
    "State": "West Bengal",
    "RegionCode": "KOLK",
    "SubRegionCode": "KOLK",
    "Latitude": "22.6953",
    "Longitude": "88.3976",
    "AvailableFormats": "2D"
  },
  "AMLC": {
    "VenueCode": "AMLC",
    "VenueName": "Amala Cinema: Barrackpore",
    "VenueAddress": "82, Barrackpore - Barasat Road, Barrackpore, Barrackpore, West Bengal 700122, India",
    "City": "Barrackpore",
    "State": "West Bengal",
    "RegionCode": "BARR",
    "SubRegionCode": "BARR",
    "Latitude": "22.7672",
    "Longitude": "88.3832",
    "AvailableFormats": "2D"
  },
  "LICL": {
    "VenueCode": "LICL",
    "VenueName": "Lila Cinema: Baruipur",
    "VenueAddress": "Baruipur - Champahati - Ghatakpukur Road, Phooltala Gate No.2, West Road South Par, Santoshpur, Baruipur - Canning Road, Kolkata, West Bengal 743387, India",
    "City": "Kolkata",
    "State": "West Bengal",
    "RegionCode": "KOLK",
    "SubRegionCode": "KOLK",
    "Latitude": "22.3431",
    "Longitude": "88.4554",
    "AvailableFormats": "2D"
  },
  "UDMM": {
    "VenueCode": "UDMM",
    "VenueName": "Utpal Dutta Mancha: Maheshtala",
    "VenueAddress": "Biren Roy Road W, Badamtala, Maheshtala, West Bengal 700141, India",
    "City": "Maheshtala",
    "State": "West Bengal",
    "RegionCode": "MAHS",
    "SubRegionCode": "MAHS",
    "Latitude": "22.4977",
    "Longitude": "88.2493",
    "AvailableFormats": "2D"
  },
  "STBZ": {
    "VenueCode": "STBZ",
    "VenueName": "Sobha Talkies: Betberia",
    "VenueAddress": "Near Belegachi, Post Office, Betberia, West Bengal 743363, India",
    "City": "Betberia",
    "State": "West Bengal",
    "RegionCode": "BETB",
    "SubRegionCode": "BETB",
    "Latitude": "22.3495",
    "Longitude": "88.5768",
    "AvailableFormats": "2D"
  },
  "UUBT": {
    "VenueCode": "UUBT",
    "VenueName": "Uma Talkies: Bakhrahat",
    "VenueAddress": "Roypur Road, Bakhrahat, Kolkata, Bakhrahat, West Bengal 743377, India",
    "City": "Bakhrahat",
    "State": "West Bengal",
    "RegionCode": "BART",
    "SubRegionCode": "BART",
    "Latitude": "22.3929",
    "Longitude": "88.2061",
    "AvailableFormats": "2D"
  },
  "SJKC": {
    "VenueCode": "SJKC",
    "VenueName": "Surajmukhi Cinemas: IGP Chandausi",
    "VenueAddress": "I Generation Point Mall, NH 509, Moradabad Agra National Highway, Dist. Sambhal, Sambhal, Uttar Pradesh 244412, India",
    "City": "Sambhal",
    "State": "Uttar Pradesh",
    "RegionCode": "SAML",
    "SubRegionCode": "SAML",
    "Latitude": "28.4569",
    "Longitude": "78.7401",
    "AvailableFormats": "2D"
  },
  "TUAL": {
    "VenueCode": "TUAL",
    "VenueName": "Tulsi Cinema: Sambhal",
    "VenueAddress": "Super Bazaar, PO Road, Tahsil Road, Sambhal, Uttar Pradesh 244302, India",
    "City": "Sambhal",
    "State": "Uttar Pradesh",
    "RegionCode": "SAML",
    "SubRegionCode": "SAML",
    "Latitude": "28.581",
    "Longitude": "78.5737",
    "AvailableFormats": "2D"
  },
  "MRSE": {
    "VenueCode": "MRSE",
    "VenueName": "Mukta A2 Cinemas: RSR Square Mall",
    "VenueAddress": "RSR Square , D NO. 1/700, SY NO 72/1, Dwaraka Nagar, R S Road, Nagarajupalli Village, Kadapa, Andhra Pradesh 516001, India",
    "City": "Kadapa",
    "State": "Andhra Pradesh",
    "RegionCode": "KDPA",
    "SubRegionCode": "KDPA",
    "Latitude": "14.4635",
    "Longitude": "78.8235",
    "AvailableFormats": "3D|2D"
  },
  "RMRK": {
    "VenueCode": "RMRK",
    "VenueName": "Ramesh Theatre A/C 4K Dolby Atmos: Kadapa",
    "VenueAddress": "Urlagattu Podu, Ganagapeta, Near Sujana Skin and Hair Care Clinic, Kadapa, Andhra Pradesh 516001, India",
    "City": "Kadapa",
    "State": "Andhra Pradesh",
    "RegionCode": "KDPA",
    "SubRegionCode": "KDPA",
    "Latitude": "14.4776",
    "Longitude": "78.8262",
    "AvailableFormats": "2D"
  },
  "TTKP": {
    "VenueCode": "TTKP",
    "VenueName": "Thahar Theater: Kadapa",
    "VenueAddress": "Ganagapeta, Near - HP Petrol Pump, Kadapa, Andhra Pradesh 516001, India",
    "City": "Kadapa",
    "State": "Andhra Pradesh",
    "RegionCode": "KDPA",
    "SubRegionCode": "KDPA",
    "Latitude": "14.4869",
    "Longitude": "78.8301",
    "AvailableFormats": "2D"
  },
  "KTKO": {
    "VenueCode": "KTKO",
    "VenueName": "Sri Venkateswara Theater Dolby Digital",
    "VenueAddress": "Bypass Road, Handadi, B.Kothakota, Andhra Pradesh 517370, India",
    "City": "B.Kothakota",
    "State": "Andhra Pradesh",
    "RegionCode": "BKOT",
    "SubRegionCode": "BKOT",
    "Latitude": "13.6586",
    "Longitude": "78.2672",
    "AvailableFormats": "2D"
  },
  "SDBK": {
    "VenueCode": "SDBK",
    "VenueName": "Sri Dwarakanatha Talkies: B Kothakota",
    "VenueAddress": "Madanapalli Road, Near Ayyappa Swamy Temple and Shivalayam, B.Kothakota, Andhra Pradesh 517370, India",
    "City": "B.Kothakota",
    "State": "Andhra Pradesh",
    "RegionCode": "BKOT",
    "SubRegionCode": "BKOT",
    "Latitude": "13.6567",
    "Longitude": "78.2659",
    "AvailableFormats": "2D"
  },
  "MCPR": {
    "VenueCode": "MCPR",
    "VenueName": "Mridhanga Cineplex 4K Dolby Atmos: Poovar",
    "VenueAddress": "Poovar Vizhinjam Road, Near Sruthi Royal Auditorium, Poovar, Kerala 695525, India",
    "City": "Poovar",
    "State": "Kerala",
    "RegionCode": "TRIV",
    "SubRegionCode": "TRIV",
    "Latitude": "8.3212",
    "Longitude": "77.0635",
    "AvailableFormats": "2D"
  },
  "CHTI": {
    "VenueCode": "CHTI",
    "VenueName": "Chhotu Maharaj Cine Cafe: Poovar, Kerala",
    "VenueAddress": "Cine Cafe Restaurant and Cineplex, Bridge Road, Opposite To Thuruthil Granite, Poovar, Kerala 695525, India",
    "City": "Poovar",
    "State": "Kerala",
    "RegionCode": "TRIV",
    "SubRegionCode": "TRIV",
    "Latitude": "8.31976",
    "Longitude": "77.0743",
    "AvailableFormats": "2D"
  },
  "GCCP": {
    "VenueCode": "GCCP",
    "VenueName": "Grandex Cinemas: Patan",
    "VenueAddress": "Ahmedabad - Patan Highway Road, Near Civil Hospital, Near GMRS,Patan, Dharpur, Gujarat 384265, India",
    "City": "Dharpur",
    "State": "Gujarat",
    "RegionCode": "DUUU",
    "SubRegionCode": "DUUU",
    "Latitude": "23.8439",
    "Longitude": "72.1881",
    "AvailableFormats": "2D"
  },
  "SRMY": {
    "VenueCode": "SRMY",
    "VenueName": "SR Cinemas: Manthani",
    "VenueAddress": "5-88/1, Vegetable Market Road, Manthani, Telangana 505184, India",
    "City": "Manthani",
    "State": "Telangana",
    "RegionCode": "MATY",
    "SubRegionCode": "MATY",
    "Latitude": "18.6338",
    "Longitude": "79.6552",
    "AvailableFormats": "2D"
  },
  "NYST": {
    "VenueCode": "NYST",
    "VenueName": "NY Cinemas: Swagat Mall",
    "VenueAddress": "3 Floor, Swagat Holiday Mall, Opposite Swagat Flamingo, Sargasan, Gandhinagar, Gujarat 382421, India",
    "City": "Gandhinagar",
    "State": "Gujarat",
    "RegionCode": "GNAGAR",
    "SubRegionCode": "GNAGAR",
    "Latitude": "23.189",
    "Longitude": "72.6096",
    "AvailableFormats": "2D"
  },
  "NYAG": {
    "VenueCode": "NYAG",
    "VenueName": "NY Cinemas: Chandkheda",
    "VenueAddress": "Aamrakunj Arne, 44TP Road, Nigam Nagar, Chandkheda, Near Gwalbhog, Ahmedabad, Gujarat 382424, India",
    "City": "Ahmedabad",
    "State": "Gujarat",
    "RegionCode": "GNAGAR",
    "SubRegionCode": "GNAGAR",
    "Latitude": "23.1176",
    "Longitude": "72.6098",
    "AvailableFormats": "2D"
  },
  "SBMT": {
    "VenueCode": "SBMT",
    "VenueName": "Sanelite Cinemas (SB Multiplex): Agora Mall",
    "VenueAddress": "200ft Ring Road, Near Tapovan Circle, Motera, Aagrah Banquet Hall, Gandhinagar, Ahmedabad, Gujarat 382424, India",
    "City": "Ahmedabad",
    "State": "Gujarat",
    "RegionCode": "GNAGAR",
    "SubRegionCode": "GNAGAR",
    "Latitude": "23.1189",
    "Longitude": "72.6247",
    "AvailableFormats": "2D"
  },
  "INGA": {
    "VenueCode": "INGA",
    "VenueName": "INOX: Gandhinagar, Adalaj",
    "VenueAddress": "Near Adalaj, Gandhinagar Sarkhej Highway, Near Tri Mandir, Gandhinagar, Gujarat 380055, India",
    "City": "Gandhinagar",
    "State": "Gujarat",
    "RegionCode": "GNAGAR",
    "SubRegionCode": "GNAGAR",
    "Latitude": "23.1803",
    "Longitude": "72.5653",
    "AvailableFormats": "2D"
  },
  "WSIC": {
    "VenueCode": "WSIC",
    "VenueName": "White Screen Cinema (Five 11): Gandhinagar",
    "VenueAddress": "Beside Sarita Udhyan, Near Indroda Park, Indroda, Gandhinagar, Gujarat 382021, India",
    "City": "Gandhinagar",
    "State": "Gujarat",
    "RegionCode": "GNAGAR",
    "SubRegionCode": "GNAGAR",
    "Latitude": "23.2022",
    "Longitude": "72.6574",
    "AvailableFormats": "2D"
  },
  "SCSS": {
    "VenueCode": "SCSS",
    "VenueName": "Sanelite Cinemas: Science City",
    "VenueAddress": "2nd Floor, The Obelisk, Science City Road, Ahmedabad, Gujarat 380060, India",
    "City": "Ahmedabad",
    "State": "Gujarat",
    "RegionCode": "GNAGAR",
    "SubRegionCode": "GNAGAR",
    "Latitude": "23.0796",
    "Longitude": "72.5014",
    "AvailableFormats": "2D"
  },
  "COPG": {
    "VenueCode": "COPG",
    "VenueName": "Connplex Cinemas (Signature): Gandhinagar",
    "VenueAddress": "301-308, Shreeji Signature, Sargasan, Near Reliance Crossroad, Gandhinagar, Gujarat 382028, India",
    "City": "Gandhinagar",
    "State": "Gujarat",
    "RegionCode": "GNAGAR",
    "SubRegionCode": "GNAGAR",
    "Latitude": "23.1848",
    "Longitude": "72.6229",
    "AvailableFormats": "2D"
  },
  "RCGR": {
    "VenueCode": "RCGR",
    "VenueName": "R World R21 Cinema: Gandhinagar",
    "VenueAddress": "R World Leisure Ltd, 2nd Floor, Sector 21, Gandhinagar, Gujarat 382021, India",
    "City": "Gandhinagar",
    "State": "Gujarat",
    "RegionCode": "GNAGAR",
    "SubRegionCode": "GNAGAR",
    "Latitude": "23.2314",
    "Longitude": "72.6682",
    "AvailableFormats": "2D"
  },
  "TCZA": {
    "VenueCode": "TCZA",
    "VenueName": "The Cinestar Miniplex: Bhat Circle, SP Ring Road",
    "VenueAddress": "201, Xperia, 2nd Floor, Opposite Agora Mall, Bhat Circle, Gandhinagar, Ahmedabad, Gujarat 382424, India",
    "City": "Ahmedabad",
    "State": "Gujarat",
    "RegionCode": "GNAGAR",
    "SubRegionCode": "GNAGAR",
    "Latitude": "23.117",
    "Longitude": "72.6288",
    "AvailableFormats": "2D"
  },
  "CNLP": {
    "VenueCode": "CNLP",
    "VenueName": "Connplex Cinemas (Luxuriance): Vaishnodevi",
    "VenueAddress": "1st Floor, Master Avenue, Gandhinagar, Near - Vaishnodevi Circle, Ahmedabad, Gujarat 382421, India",
    "City": "Ahmedabad",
    "State": "Gujarat",
    "RegionCode": "GNAGAR",
    "SubRegionCode": "GNAGAR",
    "Latitude": "23.1461",
    "Longitude": "72.5463",
    "AvailableFormats": "3D|2D"
  },
  "CLKN": {
    "VenueCode": "CLKN",
    "VenueName": "Classic Cinema, Kudasan: Gandhinagar",
    "VenueAddress": "6th Floor, F- Block, Pramukh Anand Mall, Gandhinagar, Gujarat 382421, India",
    "City": "Gandhinagar",
    "State": "Gujarat",
    "RegionCode": "GNAGAR",
    "SubRegionCode": "GNAGAR",
    "Latitude": "23.1845",
    "Longitude": "72.6303",
    "AvailableFormats": "2D"
  },
  "LHDF": {
    "VenueCode": "LHDF",
    "VenueName": "LHD Cinemas: Chandkheda",
    "VenueAddress": "5th Floor,Sai Sapphire Square, BRTS Zundal Chandkheda, Opposite Indian Oil Petrol Pump, Ahmedabad, Gujarat 382424, India",
    "City": "Ahmedabad",
    "State": "Gujarat",
    "RegionCode": "GNAGAR",
    "SubRegionCode": "GNAGAR",
    "Latitude": "23.1245",
    "Longitude": "72.5837",
    "AvailableFormats": "2D"
  },
  "ELKC": {
    "VenueCode": "ELKC",
    "VenueName": "Eylex Cinemas: Jhumri Telaiya, Koderma",
    "VenueAddress": "Eylex Cinemas, Jhumri Telaiya, Ujala complex, Ranchi Patna Road, Koderma, Jharkhand 825409, India",
    "City": "Koderma",
    "State": "Jharkhand",
    "RegionCode": "KODZ",
    "SubRegionCode": "KODZ",
    "Latitude": "24.4367",
    "Longitude": "85.5349",
    "AvailableFormats": "2D"
  },
  "VCEM": {
    "VenueCode": "VCEM",
    "VenueName": "Venu Gopala Picture Palace: Lakkavaram",
    "VenueAddress": "Sakhinetipalli - Razole Road, Near Post Office Lakkavaram, Lakkavaram, Andhra Pradesh 533254, India",
    "City": "Lakkavaram",
    "State": "Andhra Pradesh",
    "RegionCode": "LRAM",
    "SubRegionCode": "LRAM",
    "Latitude": "16.4206",
    "Longitude": "81.8411",
    "AvailableFormats": "2D"
  },
  "SSZA": {
    "VenueCode": "SSZA",
    "VenueName": "Sri Satya Theatre 2k A/c Dts: Neelapalli",
    "VenueAddress": "Neelapalli Road, Yanam, Puducherry, Neelapalli, Andhra Pradesh 533464, India",
    "City": "Neelapalli",
    "State": "Andhra Pradesh",
    "RegionCode": "NELP",
    "SubRegionCode": "NELP",
    "Latitude": "16.7339",
    "Longitude": "82.2204",
    "AvailableFormats": "2D"
  },
  "KRMT": {
    "VenueCode": "KRMT",
    "VenueName": "Krishna Metro Cinema: Sakti",
    "VenueAddress": "1st Floor, Jindal Plaza Station Road, Sakti Marg, Sakti, Chhattisgarh 495689, India",
    "City": "Sakti",
    "State": "Chhattisgarh",
    "RegionCode": "SAKT",
    "SubRegionCode": "SAKT",
    "Latitude": "22.0182",
    "Longitude": "82.9593",
    "AvailableFormats": "2D"
  },
  "LCMV": {
    "VenueCode": "LCMV",
    "VenueName": "Laxmi Chitramandir: Kankavli",
    "VenueAddress": "Achara Road, Near - Police Station, Kalmath, Kankavli, Maharashtra 416602, India",
    "City": "Kankavli",
    "State": "Maharashtra",
    "RegionCode": "KNKS",
    "SubRegionCode": "KNKS",
    "Latitude": "16.2655",
    "Longitude": "73.7061",
    "AvailableFormats": "2D"
  },
  "AYCZ": {
    "VenueCode": "AYCZ",
    "VenueName": "Aaradhya Cinema: Sawantwadi, Zarap",
    "VenueAddress": "Zarap Zero Point, Kudal Sindhudurg, Near Nemale Bridge, Zarap, Maharashtra 416510, India",
    "City": "Zarap",
    "State": "Maharashtra",
    "RegionCode": "ZARA",
    "SubRegionCode": "ZAEA",
    "Latitude": "15.9309",
    "Longitude": "73.756",
    "AvailableFormats": "2D"
  },
  "CUMS": {
    "VenueCode": "CUMS",
    "VenueName": "Chhotu Maharaj CineCafe: Sindhudurg",
    "VenueAddress": "155/2 Siddhi Cinema, A/P Oros, Opp RTO Office, Sindhudurg, Maharashtra 416812, India",
    "City": "Sindhudurg",
    "State": "Maharashtra",
    "RegionCode": "SNDH",
    "SubRegionCode": "SNDH",
    "Latitude": "16.1148",
    "Longitude": "73.7084",
    "AvailableFormats": "2D"
  },
  "BOCK": {
    "VenueCode": "BOCK",
    "VenueName": "Bosco Cinemas: Kuravilangad",
    "VenueAddress": "State Highway 1, Kurishupally, Kuravilangad, Near Global Collections, Kuravilangad, Kerala 686633, India",
    "City": "Kuravilangad",
    "State": "Kerala",
    "RegionCode": "KURA",
    "SubRegionCode": "KURA",
    "Latitude": "9.75721",
    "Longitude": "76.561",
    "AvailableFormats": "2D"
  },
  "PNMR": {
    "VenueCode": "PNMR",
    "VenueName": "PVR: Nucleus Mall, Ranchi",
    "VenueAddress": "4th Floor, Nuclues Mall, Lalpur Circular Road, Next to CJM Residance, Near Women College, Ranchi, Jharkhand 834001, India",
    "City": "Ranchi",
    "State": "Jharkhand",
    "RegionCode": "RANC",
    "SubRegionCode": "RANC",
    "Latitude": "23.377",
    "Longitude": "85.3316",
    "AvailableFormats": "3D|2D"
  },
  "PJCP": {
    "VenueCode": "PJCP",
    "VenueName": "PJP Cinemas: Mall of Ranchi",
    "VenueAddress": "3rd Floor, Mall of Ranchi, Ratu Road Chowk, Opposite Akashwani Kendra, Ranchi, Jharkhand 834001, India",
    "City": "Ranchi",
    "State": "Jharkhand",
    "RegionCode": "RANC",
    "SubRegionCode": "RANC",
    "Latitude": "23.3786",
    "Longitude": "85.3148",
    "AvailableFormats": "2D|3D"
  },
  "JDDD": {
    "VenueCode": "JDDD",
    "VenueName": "JD Cinemas: JD HI Street Mall, Ranchi",
    "VenueAddress": "JD High Street Mall, 07th Floor, Mahatma Gandhi Main Road, Opposite - GEL Church Complex, Ranchi, Jharkhand 834001, India",
    "City": "Ranchi",
    "State": "Jharkhand",
    "RegionCode": "RANC",
    "SubRegionCode": "RANC",
    "Latitude": "23.358",
    "Longitude": "85.3247",
    "AvailableFormats": "2D|3D"
  },
  "STMS": {
    "VenueCode": "STMS",
    "VenueName": "Miraj Cinemas: Sandhya Tower, Ranchi",
    "VenueAddress": "4th Floor, Dangra Toli Chowk, Sandhya Tower, Purulia Road, Ajit Enclave, Lalpur, Ranchi, Jharkhand 834001, India",
    "City": "Ranchi",
    "State": "Jharkhand",
    "RegionCode": "RANC",
    "SubRegionCode": "RANC",
    "Latitude": "23.368",
    "Longitude": "85.3396",
    "AvailableFormats": "2D|3D"
  },
  "FLMB": {
    "VenueCode": "FLMB",
    "VenueName": "Fun Cinemas: Springcity, Ranchi",
    "VenueAddress": "Spring City Mall, Hinoo Main Road, Beside Hinoo Bridge, Ranchi, Jharkhand 834002, India",
    "City": "Ranchi",
    "State": "Jharkhand",
    "RegionCode": "RANC",
    "SubRegionCode": "RANC",
    "Latitude": "23.3331",
    "Longitude": "85.3171",
    "AvailableFormats": "2D|3D"
  },
  "PKCM": {
    "VenueCode": "PKCM",
    "VenueName": "Popkorn Cinemas: Galaxia Mall, Ranchi",
    "VenueAddress": "Galaxia Mall, Ratu Road, Ranchi, Jharkhand 834005, India",
    "City": "Ranchi",
    "State": "Jharkhand",
    "RegionCode": "RANC",
    "SubRegionCode": "RANC",
    "Latitude": "23.3809",
    "Longitude": "85.3",
    "AvailableFormats": "2D"
  },
  "SPPR": {
    "VenueCode": "SPPR",
    "VenueName": "Sujata Picture Palace: Ranchi",
    "VenueAddress": "P P Compound, Main Road, Sujata Chowk, Ranchi, Jharkhand 834001, India",
    "City": "Ranchi",
    "State": "Jharkhand",
    "RegionCode": "RANC",
    "SubRegionCode": "RANC",
    "Latitude": "23.3532",
    "Longitude": "85.3235",
    "AvailableFormats": "2D"
  },
  "EYLH": {
    "VenueCode": "EYLH",
    "VenueName": "Eylex Cinemas: Hinoo",
    "VenueAddress": "Hinoo Main Road, Shukla Colony,Opposite River View Restaurant, Ranchi, Jharkhand 834002, India",
    "City": "Ranchi",
    "State": "Jharkhand",
    "RegionCode": "RANC",
    "SubRegionCode": "RANC",
    "Latitude": "23.3328",
    "Longitude": "85.3171",
    "AvailableFormats": "2D"
  },
  "RJCC": {
    "VenueCode": "RJCC",
    "VenueName": "Rohini: Jayanthy, Cheyyur",
    "VenueAddress": "Polur Road, Vandavasi, Near Theepanjamman Temple, Cheyyur, Tamil Nadu 603302, India",
    "City": "Cheyyur",
    "State": "Tamil Nadu",
    "RegionCode": "CHYR",
    "SubRegionCode": "CHYR",
    "Latitude": "12.3556",
    "Longitude": "79.9974",
    "AvailableFormats": "2D"
  },
  "MMPS": {
    "VenueCode": "MMPS",
    "VenueName": "NY Cinemas: 1 Millenium Plaza, Surendranagar",
    "VenueAddress": "Millenium Plaza, Upasana Circle, Taluka Wadhwan, Surendranagar, Gujarat 363030, India",
    "City": "Surendranagar",
    "State": "Gujarat",
    "RegionCode": "SRDN",
    "SubRegionCode": "SRDN",
    "Latitude": "22.7192",
    "Longitude": "71.6553",
    "AvailableFormats": "2D"
  },
  "SHMX": {
    "VenueCode": "SHMX",
    "VenueName": "Shiv Miniplex: Surendranagar",
    "VenueAddress": "Laxmi Nagar, Wadhwan, Surendranagar, Near Hotel Shiv International, Opposite Bus stand, Surendranagar, Gujarat 363002, India",
    "City": "Surendranagar",
    "State": "Gujarat",
    "RegionCode": "SRDN",
    "SubRegionCode": "SRDN",
    "Latitude": "22.7211",
    "Longitude": "71.6497",
    "AvailableFormats": "2D"
  },
  "CCNL": {
    "VenueCode": "CCNL",
    "VenueName": "Chhotu Maharaj Cine Cafe: Nalbari",
    "VenueAddress": "National Highway 31, 5th Floor, Barkura Banekuchi, Nalbari, Assam 781340, India",
    "City": "Nalbari",
    "State": "Assam",
    "RegionCode": "NALB",
    "SubRegionCode": "NALB",
    "Latitude": "26.4543",
    "Longitude": "91.4094",
    "AvailableFormats": "2D"
  },
  "RCNV": {
    "VenueCode": "RCNV",
    "VenueName": "Rajhans Cinemas: Navsari",
    "VenueAddress": "Italwa Gaon Next to Canal, Gandevi road, Navsari, Gujarat 313638, India",
    "City": "Navsari",
    "State": "Gujarat",
    "RegionCode": "NVSR",
    "SubRegionCode": "NVSR",
    "Latitude": "20.9175",
    "Longitude": "72.9538",
    "AvailableFormats": "2D"
  },
  "MAAG": {
    "VenueCode": "MAAG",
    "VenueName": "Mukta A2 Cinemas: Giriraj",
    "VenueAddress": "Mukta A2 Cinemas, Giriraj, Station Road, Taskand Nagar, Vejalpore, Near Udipi Hotel, Navsari, Gujarat 396445, India",
    "City": "Navsari",
    "State": "Gujarat",
    "RegionCode": "NVSR",
    "SubRegionCode": "NVSR",
    "Latitude": "20.9502",
    "Longitude": "72.9171",
    "AvailableFormats": "2D"
  },
  "LXCM": {
    "VenueCode": "LXCM",
    "VenueName": "Laxmi Cine Magic Multiplex: Navsari",
    "VenueAddress": "Karwad Road, Fuwara, Navsari, Gujarat 396445, India",
    "City": "Navsari",
    "State": "Gujarat",
    "RegionCode": "NVSR",
    "SubRegionCode": "NVSR",
    "Latitude": "20.9543",
    "Longitude": "72.9229",
    "AvailableFormats": "2D"
  },
  "RCNI": {
    "VenueCode": "RCNI",
    "VenueName": "Royal Cinema: Navsari",
    "VenueAddress": "Paradise Tower, Station Road, Soni Samaj Vadi, Vejalpore, Opposite Civil Hospital, Navsari, Gujarat 396445, India",
    "City": "Navsari",
    "State": "Gujarat",
    "RegionCode": "NVSR",
    "SubRegionCode": "NVSR",
    "Latitude": "20.9501",
    "Longitude": "72.9178",
    "AvailableFormats": "2D"
  },
  "SNNI": {
    "VenueCode": "SNNI",
    "VenueName": "Star Cinemas: Navsari",
    "VenueAddress": "The Wilson Point Italwa Gandevi, Main Road, opp. Vishalnagar, Navsari, Gujarat 396463, India",
    "City": "Navsari",
    "State": "Gujarat",
    "RegionCode": "NVSR",
    "SubRegionCode": "NVSR",
    "Latitude": "20.9134",
    "Longitude": "72.9589",
    "AvailableFormats": "2D"
  },
  "LALC": {
    "VenueCode": "LALC",
    "VenueName": "Lal Palace Cineplex: Jagraon",
    "VenueAddress": "Moga Road, Kothe Fateh Din De, Jagraon, Punjab 142026, India",
    "City": "Jagraon",
    "State": "Punjab",
    "RegionCode": "JGRO",
    "SubRegionCode": "JGRO",
    "Latitude": "30.8111",
    "Longitude": "75.4725",
    "AvailableFormats": "2D"
  },
  "SOCN": {
    "VenueCode": "SOCN",
    "VenueName": "Star Omjee Cinema: Jagraon",
    "VenueAddress": "Opposite Power House, Sidhwan Bet Road, Jagraon, Punjab 142026, India",
    "City": "Jagraon",
    "State": "Punjab",
    "RegionCode": "JGRO",
    "SubRegionCode": "JGRO",
    "Latitude": "30.8198",
    "Longitude": "75.476",
    "AvailableFormats": "2D"
  },
  "JHTP": {
    "VenueCode": "JHTP",
    "VenueName": "Jaya Kerala Theatre: Parappanangadi",
    "VenueAddress": "Parappanangadi - Chemmad - Malappuram Road, Putharikkal, Parappanangadi, Kerala 676303, India",
    "City": "Parappanangadi",
    "State": "Kerala",
    "RegionCode": "PAVP",
    "SubRegionCode": "PAVP",
    "Latitude": "11.0456",
    "Longitude": "75.8642",
    "AvailableFormats": "2D"
  },
  "PITP": {
    "VenueCode": "PITP",
    "VenueName": "Pallavi Theatre: Parappanangadi",
    "VenueAddress": "Malappuram Road, Neduva, Parappanangadi, Kerala 676303, India",
    "City": "Parappanangadi",
    "State": "Kerala",
    "RegionCode": "PAVP",
    "SubRegionCode": "PAVP",
    "Latitude": "11.043",
    "Longitude": "75.8688",
    "AvailableFormats": "2D"
  },
  "CCKW": {
    "VenueCode": "CCKW",
    "VenueName": "My Cinemas: Singrauli",
    "VenueAddress": "Carnival Jalsa Talkies, Village Kachni, Ward No. 28, Waidhan, Near Chauhan Sheetgrih, Singrauli, Madhya Pradesh 486886, India",
    "City": "Singrauli",
    "State": "Madhya Pradesh",
    "RegionCode": "SNGR",
    "SubRegionCode": "SNGR",
    "Latitude": "24.0772",
    "Longitude": "82.5888",
    "AvailableFormats": "2D"
  },
  "MCMC": {
    "VenueCode": "MCMC",
    "VenueName": "MCM Cineplex: Waidhan",
    "VenueAddress": "Near Masjid Square, Talkies Road, Waidhan, Singrauli, Madhya Pradesh 486886, India",
    "City": "Singrauli",
    "State": "Madhya Pradesh",
    "RegionCode": "SNGR",
    "SubRegionCode": "SNGR",
    "Latitude": "24.0651",
    "Longitude": "82.6302",
    "AvailableFormats": "2D"
  },
  "DEES": {
    "VenueCode": "DEES",
    "VenueName": "Jagadeeswari Theatre A/C 4K Dolby Atmos: Markapur",
    "VenueAddress": "Bharathi Vidya Nikethan Road, Near Viswa Shanthi School Hostel, Markapur, Andhra Pradesh 523316, India",
    "City": "Markapur",
    "State": "Andhra Pradesh",
    "RegionCode": "MARK",
    "SubRegionCode": "MARK",
    "Latitude": "15.7435",
    "Longitude": "79.2716",
    "AvailableFormats": "2D"
  },
  "SABT": {
    "VenueCode": "SABT",
    "VenueName": "Sai Balaji Theater A/c 70 MM Dolby Atmos: Markapur",
    "VenueAddress": "Markapur Town Road, Gandhi Bazar Road, Markapur, Andhra Pradesh 523316, India",
    "City": "Markapur",
    "State": "Andhra Pradesh",
    "RegionCode": "MARK",
    "SubRegionCode": "MARK",
    "Latitude": "15.7417",
    "Longitude": "79.2652",
    "AvailableFormats": "2D"
  },
  "VSPP": {
    "VenueCode": "VSPP",
    "VenueName": "Visweswara Picture Palace: Markapur",
    "VenueAddress": "Jawahar Nagar Colony, Near Sadhana Junior College, Markapur, Andhra Pradesh 523316, India",
    "City": "Markapur",
    "State": "Andhra Pradesh",
    "RegionCode": "MARK",
    "SubRegionCode": "MARK",
    "Latitude": "15.743",
    "Longitude": "79.2755",
    "AvailableFormats": "2D"
  },
  "ABCT": {
    "VenueCode": "ABCT",
    "VenueName": "Arra Cinemas: Bodi",
    "VenueAddress": "P. H Road, Old bus stand, Bodinayakanur, Tamil Nadu 625513, India",
    "City": "Bodinayakanur",
    "State": "Tamil Nadu",
    "RegionCode": "BODI",
    "SubRegionCode": "BODI",
    "Latitude": "10.0077",
    "Longitude": "77.3531",
    "AvailableFormats": "2D"
  },
  "JVTB": {
    "VenueCode": "JVTB",
    "VenueName": "Theatre Jivan: Bodi",
    "VenueAddress": "Ammankulam, Subanchetty Street, Near Pandyan Grama Bank, Bodinayakanur, Tamil Nadu 625513, India",
    "City": "Bodinayakanur",
    "State": "Tamil Nadu",
    "RegionCode": "BODI",
    "SubRegionCode": "BODI",
    "Latitude": "10.01",
    "Longitude": "77.3497",
    "AvailableFormats": "2D"
  },
  "VCBD": {
    "VenueCode": "VCBD",
    "VenueName": "Vetri Cinemas: Bodi",
    "VenueAddress": "SH 100, Ammankulam, Bodinayakanur, Tamil Nadu 625513, India",
    "City": "Bodinayakanur",
    "State": "Tamil Nadu",
    "RegionCode": "BODI",
    "SubRegionCode": "BODI",
    "Latitude": "10.0105",
    "Longitude": "77.3471",
    "AvailableFormats": "2D"
  },
  "RMGG": {
    "VenueCode": "RMGG",
    "VenueName": "Ram Mohan Theater: Gampalagudem",
    "VenueAddress": "Gampalagudem - Tiruvuru Road, Near BSNL Office, Gampalagudem, Andhra Pradesh 521403, India",
    "City": "Gampalagudem",
    "State": "Andhra Pradesh",
    "RegionCode": "GMPL",
    "SubRegionCode": "GMPL",
    "Latitude": "16.9952",
    "Longitude": "80.5215",
    "AvailableFormats": "2D"
  },
  "RNMH": {
    "VenueCode": "RNMH",
    "VenueName": "Ranga Mahal Theater: Velugodu",
    "VenueAddress": "Velugodu - Abdullapuram Road, Near Velugodu Bus Stand, Velugodu, Andhra Pradesh 518533, India",
    "City": "Velugodu",
    "State": "Andhra Pradesh",
    "RegionCode": "VLGD",
    "SubRegionCode": "VLGD",
    "Latitude": "15.7168",
    "Longitude": "78.5655",
    "AvailableFormats": "2D"
  },
  "SPGL": {
    "VenueCode": "SPGL",
    "VenueName": "Sri Ramana Picture palace: Gadivemula",
    "VenueAddress": "MCHC+45M, kurnool, Near to Gadivemula Bus Stand, Gadivemula, Andhra Pradesh 518508, India",
    "City": "Gadivemula",
    "State": "Andhra Pradesh",
    "RegionCode": "VLGD",
    "SubRegionCode": "VLGD",
    "Latitude": "15.6778",
    "Longitude": "78.4204",
    "AvailableFormats": "2D"
  },
  "JTTR": {
    "VenueCode": "JTTR",
    "VenueName": "Ramesh Talkies: Jaisalmer",
    "VenueAddress": "Patwon Ki Haveliyan Road,Amar Sagar Pol,Jaisalmer, Rajasthan 345001, India",
    "City": "Jaisalmer",
    "State": "Rajasthan",
    "RegionCode": "JSMR",
    "SubRegionCode": "JSMR",
    "Latitude": "26.9178",
    "Longitude": "70.9136",
    "AvailableFormats": "2D"
  },
  "SICS": {
    "VenueCode": "SICS",
    "VenueName": "Sri Murugan(Yamuna)Full AC 4K 3D: Panachamoodu",
    "VenueAddress": "Panachamoodu, Mancode Post, Panachamoodu, Tamil Nadu 695001, India",
    "City": "Panachamoodu",
    "State": "Tamil Nadu",
    "RegionCode": "NAGE",
    "SubRegionCode": "NAGE",
    "Latitude": "8.42655",
    "Longitude": "77.1973",
    "AvailableFormats": "2D"
  },
  "SRMI": {
    "VenueCode": "SRMI",
    "VenueName": "Sri Madhava Theatre: Ieeja",
    "VenueAddress": "Ieeja - Gadwal Road, Near Akshara High School, Ieeja, Telangana 509127, India",
    "City": "Ieeja",
    "State": "Telangana",
    "RegionCode": "IEEJ",
    "SubRegionCode": "IEEJ",
    "Latitude": "16.0138",
    "Longitude": "77.6668",
    "AvailableFormats": "2D"
  },
  "SSIJ": {
    "VenueCode": "SSIJ",
    "VenueName": "Shiva Sai Deluxe Theatre: Ieeja",
    "VenueAddress": "Ieeja - Gadwal Road, Near Old Bus Stand, Ieeja, Telangana 509127, India",
    "City": "Ieeja",
    "State": "Telangana",
    "RegionCode": "IEEJ",
    "SubRegionCode": "IEEJ",
    "Latitude": "16.0197",
    "Longitude": "77.6684",
    "AvailableFormats": "2D"
  },
  "KFMT": {
    "VenueCode": "KFMT",
    "VenueName": "Karthika Fun Movies Thalikulam RGB 4K Laser Atmos",
    "VenueAddress": "Karthika Movies, National Highway 66, Thalikulam, Kerala 680569, India",
    "City": "Thalikulam",
    "State": "Kerala",
    "RegionCode": "THAI",
    "SubRegionCode": "THAI",
    "Latitude": "10.4413",
    "Longitude": "76.0938",
    "AvailableFormats": "2D"
  },
  "VBIT": {
    "VenueCode": "VBIT",
    "VenueName": "VB Cinemas 4K RGB Laser ATMOS: Thriprayar",
    "VenueAddress": "Kanyakumari Highway, Triprayar, Thriprayar, Kerala 680567, India",
    "City": "Thriprayar",
    "State": "Kerala",
    "RegionCode": "THAI",
    "SubRegionCode": "THAI",
    "Latitude": "10.408",
    "Longitude": "76.1107",
    "AvailableFormats": "2D"
  },
  "JKCT": {
    "VenueCode": "JKCT",
    "VenueName": "JK Cinemas 4K Dolby Atmos: Thriprayar",
    "VenueAddress": "Ground Floor,Dheehini Shopping Complex, Nattika,Thriprayar, Near Sree Narayana Hall, Thrissur, Kerala 680566, India",
    "City": "Thrissur",
    "State": "Kerala",
    "RegionCode": "THAI",
    "SubRegionCode": "THAI",
    "Latitude": "10.4195",
    "Longitude": "76.106",
    "AvailableFormats": "2D"
  },
  "GCGP": {
    "VenueCode": "GCGP",
    "VenueName": "Gold Cinema: Goldighi Municipal Mall, Silchar",
    "VenueAddress": "Gold Digital Cinema, Goldighi Municipal Mall, Nazirpatty, Silchar, Assam 788001, India",
    "City": "Silchar",
    "State": "Assam",
    "RegionCode": "SIL",
    "SubRegionCode": "SIL",
    "Latitude": "24.8229",
    "Longitude": "92.8001",
    "AvailableFormats": "2D|3D"
  },
  "GDCS": {
    "VenueCode": "GDCS",
    "VenueName": "Gold Cinema, Sadarghat Road: Silchar",
    "VenueAddress": "Entertainment Plaza, Barak Cha Sramik Union Building Complex, Sadarghat Road, Waris Industries, Silchar, Assam 788001, India",
    "City": "Silchar",
    "State": "Assam",
    "RegionCode": "SIL",
    "SubRegionCode": "SIL",
    "Latitude": "24.8284",
    "Longitude": "92.8033",
    "AvailableFormats": "2D"
  },
  "TRBA": {
    "VenueCode": "TRBA",
    "VenueName": "Treasure Cinema: Baihar",
    "VenueAddress": "Major District Road 26, Ward No.08, Near Sai Mandir, Baihar, Madhya Pradesh 481111, India",
    "City": "Baihar",
    "State": "Madhya Pradesh",
    "RegionCode": "BIAH",
    "SubRegionCode": "BIAH",
    "Latitude": "22.1039",
    "Longitude": "80.5595",
    "AvailableFormats": "2D"
  },
  "QUST": {
    "VenueCode": "QUST",
    "VenueName": "Quality Starworld: Padrauna",
    "VenueAddress": "PD City Mall, Kasiya Road, Padrauna, Uttar Pradesh 274304, India",
    "City": "Padrauna",
    "State": "Uttar Pradesh",
    "RegionCode": "PADR",
    "SubRegionCode": "PADR",
    "Latitude": "26.8945",
    "Longitude": "83.9786",
    "AvailableFormats": "2D"
  },
  "VSHM": {
    "VenueCode": "VSHM",
    "VenueName": "Vishnu Mahal Theater: Puttur",
    "VenueAddress": "KN Road, Near Puttur Municipal Library, Puttur, Andhra Pradesh 517583, India",
    "City": "Puttur",
    "State": "Andhra Pradesh",
    "RegionCode": "PUTT",
    "SubRegionCode": "PUTT",
    "Latitude": "13.4382",
    "Longitude": "79.5488",
    "AvailableFormats": "2D"
  },
  "SDCP": {
    "VenueCode": "SDCP",
    "VenueName": "SJ Cinemas Santhi: Puttur",
    "VenueAddress": "National Highway 205, Puttur Flyover, Near Bharat Petroleum, Puttur, Andhra Pradesh 517583, India",
    "City": "Puttur",
    "State": "Andhra Pradesh",
    "RegionCode": "PUTT",
    "SubRegionCode": "PUTT",
    "Latitude": "13.4454",
    "Longitude": "79.5515",
    "AvailableFormats": "2D"
  },
  "SNVS": {
    "VenueCode": "SNVS",
    "VenueName": "Srinivasa A/C 4K Dolby Atmos: Puttur",
    "VenueAddress": "Ramarao Colony, Puttur Satyavedu Road, Opposite Bus Stand, Puttur, Andhra Pradesh 517583, India",
    "City": "Puttur",
    "State": "Andhra Pradesh",
    "RegionCode": "PUTT",
    "SubRegionCode": "PUTT",
    "Latitude": "13.4357",
    "Longitude": "79.5537",
    "AvailableFormats": "2D"
  },
  "NYTO": {
    "VenueCode": "NYTO",
    "VenueName": "Narendra Talkies: Aurangabad",
    "VenueAddress": "Narendra Talkies, Yamunanagar Road, Aurangabad (Bihar), Bihar 824101, India",
    "City": "Aurangabad (Bihar)",
    "State": "Bihar",
    "RegionCode": "AUBI",
    "SubRegionCode": "AUBI",
    "Latitude": "24.7466",
    "Longitude": "84.3803",
    "AvailableFormats": "2D"
  },
  "URWC": {
    "VenueCode": "URWC",
    "VenueName": "Urich Cinema: Wardha",
    "VenueAddress": "Urich Mall, Aarti Talkis Square, Nagpur Road, Opposite - Indira Gandhi Putla, Wardha, Maharashtra 442001, India",
    "City": "Wardha",
    "State": "Maharashtra",
    "RegionCode": "WARD",
    "SubRegionCode": "WARD",
    "Latitude": "20.7489",
    "Longitude": "78.6055",
    "AvailableFormats": "2D|3D"
  },
  "GTWH": {
    "VenueCode": "GTWH",
    "VenueName": "Ganesh Talkies: Wardha",
    "VenueAddress": "Sevagram Road, Mahadevpura, Near District General Hospital, Wardha, Maharashtra 442001, India",
    "City": "Wardha",
    "State": "Maharashtra",
    "RegionCode": "WARD",
    "SubRegionCode": "WARD",
    "Latitude": "20.7372",
    "Longitude": "78.6028",
    "AvailableFormats": "2D|3D"
  },
  "PFCM": {
    "VenueCode": "PFCM",
    "VenueName": "Mint Cinemas A/C 2K 3D: Sulthan Bathery",
    "VenueAddress": "4th Floor, Mint Mall, Chungam, Near Trends, Sultan Bathery, Kerala 673592, India",
    "City": "Sultan Bathery",
    "State": "Kerala",
    "RegionCode": "SULY",
    "SubRegionCode": "SULY",
    "Latitude": "11.6643",
    "Longitude": "76.2617",
    "AvailableFormats": "2D"
  },
  "KRTA": {
    "VenueCode": "KRTA",
    "VenueName": "Krishna Theatre: Kazhakkoottam",
    "VenueAddress": "NH 47, Bypass Road, Near Bhima Theatre, Kazhakkoottam, Kerala 695582, India",
    "City": "Kazhakkoottam",
    "State": "Kerala",
    "RegionCode": "TRIV",
    "SubRegionCode": "TRIV",
    "Latitude": "8.5664",
    "Longitude": "76.875",
    "AvailableFormats": "2D"
  },
  "AXMC": {
    "VenueCode": "AXMC",
    "VenueName": "Aashirvad Cineplexx, GrandCentreMall: Muvattupuzha",
    "VenueAddress": "3rd Floor Grand Centre Mall, Thottumkalpeedika, Muvattupuzha, Kerala 686661, India",
    "City": "Muvattupuzha",
    "State": "Kerala",
    "RegionCode": "MUVA",
    "SubRegionCode": "MUVA",
    "Latitude": "9.98175",
    "Longitude": "76.5787",
    "AvailableFormats": "2D"
  },
  "EVMC": {
    "VenueCode": "EVMC",
    "VenueName": "EVM Latha 4k 3D RGB Pure laser 7.1: Muvattupuzha",
    "VenueAddress": "SH8, Kizhakkekara, Muvattupuzha, Near Nirmala Shopping Centre, Muvattupuzha, Kerala 686661, India",
    "City": "Muvattupuzha",
    "State": "Kerala",
    "RegionCode": "MUVA",
    "SubRegionCode": "MUVA",
    "Latitude": "9.97985",
    "Longitude": "76.5837",
    "AvailableFormats": "2D"
  },
  "HGSM": {
    "VenueCode": "HGSM",
    "VenueName": "Highstreet Cinema: Canton Highstreet, Muvattupuzha",
    "VenueAddress": "Bus Stand, 130 Junction, MC Road, Near KSRTC, Thottumkalpeedika, Muvattupuzha, Kerala 686673, India",
    "City": "Muvattupuzha",
    "State": "Kerala",
    "RegionCode": "MUVA",
    "SubRegionCode": "MUVA",
    "Latitude": "9.97568",
    "Longitude": "76.5801",
    "AvailableFormats": "2D"
  },
  "ACVM": {
    "VenueCode": "ACVM",
    "VenueName": "AGS Cinemas: Villivakkam",
    "VenueAddress": "No. 1/1, Mettu Street Villivakkam, Behind, Villivakkam Bus Depot, Chennai, Tamil Nadu 600049, India",
    "City": "Chennai",
    "State": "Tamil Nadu",
    "RegionCode": "PONE",
    "SubRegionCode": "PONE",
    "Latitude": "13.1047",
    "Longitude": "80.209",
    "AvailableFormats": "2D"
  },
  "PSKL": {
    "VenueCode": "PSKL",
    "VenueName": "PVR: SKLS Galaxy Mall, Red Hills Chennai",
    "VenueAddress": "4th Floor, SKLS Galaxy Mall, Survey No. 93/IC/2B, GNT Road Red Hills, Chennai, Tamil Nadu 600052, India",
    "City": "Chennai",
    "State": "Tamil Nadu",
    "RegionCode": "PONE",
    "SubRegionCode": "PONE",
    "Latitude": "13.1917",
    "Longitude": "80.1862",
    "AvailableFormats": "2D"
  },
  "RDMP": {
    "VenueCode": "RDMP",
    "VenueName": "Shree Radha Movie Park 4K Dolby Atmos: Redhills",
    "VenueAddress": "M.A Nagar, Ambedkar Street, Redhills, Near Redhills Bus Terminus, Chennai, Tamil Nadu 600052, India",
    "City": "Chennai",
    "State": "Tamil Nadu",
    "RegionCode": "PONE",
    "SubRegionCode": "PONE",
    "Latitude": "13.1931",
    "Longitude": "80.1834",
    "AvailableFormats": "2D"
  },
  "RHGH": {
    "VenueCode": "RHGH",
    "VenueName": "Rajhans Cinemas: Gandhidham",
    "VenueAddress": "Aditya Mall And Multiplex, DC 2, Gurukul Road, Gandhidham, Gujarat 370201, India",
    "City": "Gandhidham",
    "State": "Gujarat",
    "RegionCode": "KTCH",
    "SubRegionCode": "KTCH",
    "Latitude": "23.0752",
    "Longitude": "70.1164",
    "AvailableFormats": "2D"
  },
  "OMCM": {
    "VenueCode": "OMCM",
    "VenueName": "Om Cineplex: Gandhidham",
    "VenueAddress": "Om Cineplex, M/s Naren Enterprise, Plot No - A, WARD NO. 6  (COMMERCIAL) Ram Baugh Crossways,Gandhidham, Gujarat 370201, India",
    "City": "Gandhidham",
    "State": "Gujarat",
    "RegionCode": "KTCH",
    "SubRegionCode": "KTCH",
    "Latitude": "23.076",
    "Longitude": "70.1075",
    "AvailableFormats": "2D"
  },
  "DCCP": {
    "VenueCode": "DCCP",
    "VenueName": "Dharmatma Cinemark: Chakan, Pune",
    "VenueAddress": "City Plaza, Talegaon, Chakan Road, Pune, Maharashtra 410501, India",
    "City": "Pune",
    "State": "Maharashtra",
    "RegionCode": "KHED",
    "SubRegionCode": "KHED",
    "Latitude": "18.7516",
    "Longitude": "73.8353",
    "AvailableFormats": "2D"
  },
  "MCPB": {
    "VenueCode": "MCPB",
    "VenueName": "Mukta A2 Cinemas: Parv Plaza, Behror",
    "VenueAddress": "Parv Plaza, 5th Floor, A-15 B1, Phase 1, Riico Industrial Area, Behror, Rajasthan 301701, India",
    "City": "Behror",
    "State": "Rajasthan",
    "RegionCode": "BEHR",
    "SubRegionCode": "BEHR",
    "Latitude": "27.8948",
    "Longitude": "76.2976",
    "AvailableFormats": "2D|3D"
  },
  "ALCI": {
    "VenueCode": "ALCI",
    "VenueName": "Alpana Cinema: Vadodara",
    "VenueAddress": "Navapura, Bhatia Chawl, Pratap Nagar Road, Moghul Wada, Vadodara, Gujarat 390001, India",
    "City": "Vadodara",
    "State": "Gujarat",
    "RegionCode": "VAD",
    "SubRegionCode": "VAD",
    "Latitude": "22.2859",
    "Longitude": "73.2092",
    "AvailableFormats": "2D"
  },
  "BLMX": {
    "VenueCode": "BLMX",
    "VenueName": "Bansal Movieplex Gotri-Vasna Road: Vadodara",
    "VenueAddress": "Bansal Mall,Gotri - Bhayli Rd, Nilamber Char Rasta,Near, Saiyed Vasna, Gotri, Vadodara, Gujarat 390021, India",
    "City": "Vadodara",
    "State": "Gujarat",
    "RegionCode": "ANKV",
    "SubRegionCode": "ANKV",
    "Latitude": "22.3035",
    "Longitude": "73.1383",
    "AvailableFormats": "2D"
  },
  "BTMV": {
    "VenueCode": "BTMV",
    "VenueName": "Bansal Movieplex: Tarsali, Vadodara",
    "VenueAddress": "Amar Shraddha Society, Danteshwar, Tarsali, Vadodara, Gujarat 390004, India",
    "City": "Vadodara",
    "State": "Gujarat",
    "RegionCode": "VAD",
    "SubRegionCode": "VAD",
    "Latitude": "22.267",
    "Longitude": "73.2227",
    "AvailableFormats": "2D"
  },
  "FVPN": {
    "VenueCode": "FVPN",
    "VenueName": "Cinemarc Vihar: Pratapnagar",
    "VenueAddress": "9/10,Pratapnagar Road, Pratapnagar, Bhatia Chawl, Opposite Yogini Vasantdevi Hospital,Moghul Wada, Vadodara, Gujarat 390004, India",
    "City": "Vadodara",
    "State": "Gujarat",
    "RegionCode": "ANKV",
    "SubRegionCode": "ANKV",
    "Latitude": "22.2892",
    "Longitude": "73.2096",
    "AvailableFormats": "2D"
  },
  "CMAR": {
    "VenueCode": "CMAR",
    "VenueName": "Cinemarc: Akota, Vadodara",
    "VenueAddress": "3rd Floor, Galleria Mall, Ajit Nagar Society, Opposite D Mart,Sayajirao Nagar Gruh, Vadodara, Gujarat 390020, India",
    "City": "Vadodara",
    "State": "Gujarat",
    "RegionCode": "VAD",
    "SubRegionCode": "VAD",
    "Latitude": "22.3008",
    "Longitude": "73.169",
    "AvailableFormats": "2D"
  },
  "CEIM": {
    "VenueCode": "CEIM",
    "VenueName": "Cinemarc: New VIP Road",
    "VenueAddress": "3rd/4th Floor Earth Icon,New VIP Ring Road, Khodiyar Nagar Char Rasta,Near, Uma Char Rasta, Opposite Venice Villa, Khodiyar Nagar,Kishanwadi, Vadodara, Gujarat 390022, India",
    "City": "Vadodara",
    "State": "Gujarat",
    "RegionCode": "ANKV",
    "SubRegionCode": "ANKV",
    "Latitude": "22.3181",
    "Longitude": "73.228",
    "AvailableFormats": "2D|3D"
  },
  "CMVA": {
    "VenueCode": "CMVA",
    "VenueName": "Cinemera Multiplex: Vadodara",
    "VenueAddress": "2nd Floor, Vrundavan Mall, Vaghodia Dabhoi Ring Road, Near Parivar Char Rasta,Kendranagar, Above Sales India, Sarthi Nagar 2, Vadodara, Gujarat 390019, India",
    "City": "Vadodara",
    "State": "Gujarat",
    "RegionCode": "VAD",
    "SubRegionCode": "VAD",
    "Latitude": "22.2945",
    "Longitude": "73.238",
    "AvailableFormats": "2D|3D"
  },
  "CPIV": {
    "VenueCode": "CPIV",
    "VenueName": "Cinepolis: Inorbit Vadodara Mall",
    "VenueAddress": "2nd Floor, Inorbit Mall,Nr. Gunjan Tower, Gorwa Road, Gorwa, Opp. Alembic School, Vadodara, Gujarat 390023, India",
    "City": "Vadodara",
    "State": "Gujarat",
    "RegionCode": "VAD",
    "SubRegionCode": "VAD",
    "Latitude": "22.3227",
    "Longitude": "73.1662",
    "AvailableFormats": "2D|3D"
  },
  "CNPE": {
    "VenueCode": "CNPE",
    "VenueName": "Cineprime Cinema: Cinemall, Vadodara",
    "VenueAddress": "Cine Mall, 50, Race Course Road, Alkapuri, Near Natubhai Circle, Race Course, Vadodara, Gujarat 390007, India",
    "City": "Vadodara",
    "State": "Gujarat",
    "RegionCode": "VAD",
    "SubRegionCode": "VAD",
    "Latitude": "22.3105",
    "Longitude": "73.1589",
    "AvailableFormats": "2D"
  },
  "COLV": {
    "VenueCode": "COLV",
    "VenueName": "Connplex Cinemas (Luxuriance): Vadodara",
    "VenueAddress": "Kanha Center, 2nd Floor, RC Dutt Road, Alkapuri, Opposite Hotel Express Ardhana Society, Vadodara, Gujarat 390020, India",
    "City": "Vadodara",
    "State": "Gujarat",
    "RegionCode": "VAD",
    "SubRegionCode": "VAD",
    "Latitude": "22.3108",
    "Longitude": "73.1688",
    "AvailableFormats": "2D|3D"
  },
  "DNNV": {
    "VenueCode": "DNNV",
    "VenueName": "Deep Cinemas: Nizampura, Chhani Road",
    "VenueAddress": "Deep Cinemas, Deep Multiplex Pvt. Ltd, Behind Kiran Motors, Old Chhani Road, Chhani, Vadodara, Gujarat 390008, India",
    "City": "Vadodara",
    "State": "Gujarat",
    "RegionCode": "VAD",
    "SubRegionCode": "VAD",
    "Latitude": "22.3405",
    "Longitude": "73.1738",
    "AvailableFormats": "2D"
  },
  "HCAD": {
    "VenueCode": "HCAD",
    "VenueName": "Havelock Cineflix: Tarsali, Vadodara",
    "VenueAddress": "4th Floor, Siddharth Magnum Plus, Tarsali Danteshwar Ring Road, Beside Bansal Mall, Tarsali, Vadodara, Gujarat 390009, India",
    "City": "Vadodara",
    "State": "Gujarat",
    "RegionCode": "VAD",
    "SubRegionCode": "VAD",
    "Latitude": "22.2669",
    "Longitude": "73.2225",
    "AvailableFormats": "2D"
  },
  "TAKA": {
    "VenueCode": "TAKA",
    "VenueName": "INOX Taksh Galaxy Mall: Waghodia",
    "VenueAddress": "Taksh Galaxy Mall, Waghodia Bypass NH 8, Madhavpura, Vadodara, Gujarat 390019, India",
    "City": "Vadodara",
    "State": "Gujarat",
    "RegionCode": "VAD",
    "SubRegionCode": "VAD",
    "Latitude": "22.3012",
    "Longitude": "73.2549",
    "AvailableFormats": "2D|3D"
  },
  "INVD": {
    "VenueCode": "INVD",
    "VenueName": "INOX: Race Course Circle",
    "VenueAddress": "Race Course Road, Gopal Baug, Ellora Park, Vadodara, Gujarat 390007, India",
    "City": "Vadodara",
    "State": "Gujarat",
    "RegionCode": "VAD",
    "SubRegionCode": "VAD",
    "Latitude": "22.3131",
    "Longitude": "73.1579",
    "AvailableFormats": "2D|3D"
  },
  "IRMM": {
    "VenueCode": "IRMM",
    "VenueName": "INOX: Reliance Mega Mall, Vadodara",
    "VenueAddress": "Reliance Mega Mall, Old Padra Road, Muj Mahuda, Vadodara, Gujarat 390020, India",
    "City": "Vadodara",
    "State": "Gujarat",
    "RegionCode": "VAD",
    "SubRegionCode": "VAD",
    "Latitude": "22.2851",
    "Longitude": "73.1641",
    "AvailableFormats": "2D|3D"
  },
  "INSE": {
    "VenueCode": "INSE",
    "VenueName": "Infinity 7 Seas Cinema: Fatehganj",
    "VenueAddress": "4th Floor, Seven Seas Mall, IPCL Circle, Fatehgunj, Jayesh Colony, Vadodara, Gujarat 390002, India",
    "City": "Vadodara",
    "State": "Gujarat",
    "RegionCode": "VAD",
    "SubRegionCode": "VAD",
    "Latitude": "22.3229",
    "Longitude": "73.1866",
    "AvailableFormats": "2D"
  },
  "MRSW": {
    "VenueCode": "MRSW",
    "VenueName": "Miraj Cinemas: SWC Mall",
    "VenueAddress": "Plot No. 28, Ward No. 11, Next to Sun Pharma Research Center, Sun Pharma Road, Soudagar Park, Tandalja, Vadodara, Gujarat 390012, India",
    "City": "Vadodara",
    "State": "Gujarat",
    "RegionCode": "VAD",
    "SubRegionCode": "VAD",
    "Latitude": "22.2803",
    "Longitude": "73.1497",
    "AvailableFormats": "2D|3D"
  },
  "MCVD": {
    "VenueCode": "MCVD",
    "VenueName": "Movietime: S-Square Mall, Subhanpura, Vadodara",
    "VenueAddress": "3rd Floor, S-Square Complex, Above Dominos, Subhanpura, Beside Ganga Jamuna Hospital, Vadodara, Gujarat 390023, India",
    "City": "Vadodara",
    "State": "Gujarat",
    "RegionCode": "VAD",
    "SubRegionCode": "VAD",
    "Latitude": "22.3194",
    "Longitude": "73.1589",
    "AvailableFormats": "2D"
  },
  "MCSO": {
    "VenueCode": "MCSO",
    "VenueName": "Mukta A2 Cinemas (Opulence): The Emperor Mall",
    "VenueAddress": "The Emperor Mall, 2nd Floor, Beside VCA Ground, Vasna-Bhayli Road, Opposite Shakti Green Party Plot, Vadodara, Gujarat 391410, India",
    "City": "Vadodara",
    "State": "Gujarat",
    "RegionCode": "VAD",
    "SubRegionCode": "VAD",
    "Latitude": "22.2922",
    "Longitude": "73.1357",
    "AvailableFormats": "3D|2D"
  },
  "PEVM": {
    "VenueCode": "PEVM",
    "VenueName": "PVR: EVA Mall, Vadodara",
    "VenueAddress": "3rd Floor, Eva The Mall, C/O Ramesh Patel Estate, Manjalpur, Near Saraswat Complex, Vadodara, Gujarat 390011, India",
    "City": "Vadodara",
    "State": "Gujarat",
    "RegionCode": "VAD",
    "SubRegionCode": "VAD",
    "Latitude": "22.2731",
    "Longitude": "73.1882",
    "AvailableFormats": "2D|3D"
  },
  "PVNL": {
    "VenueCode": "PVNL",
    "VenueName": "PVR: Nilamber Triumph, Vadodara",
    "VenueAddress": "PVR Limited, Nilamber Triumph Mall, Vaoddara Gotri, Bhayli Road, Shwamegh Nagar, Saiyed Vasna, Vadodara, Gujarat 390007, India",
    "City": "Vadodara",
    "State": "Gujarat",
    "RegionCode": "VAD",
    "SubRegionCode": "VAD",
    "Latitude": "22.3016",
    "Longitude": "73.1388",
    "AvailableFormats": "2D|3D"
  },
  "PTCV": {
    "VenueCode": "PTCV",
    "VenueName": "PVR: TransCube, Vadodara",
    "VenueAddress": "3rd floor, VED trans CUBE Plaza, Vadodara Central Bus terminal, K. J. Patel marg, Opp. Main Railway station, Opp. Main Railway station, Vadodara, Gujarat 390005, India",
    "City": "Vadodara",
    "State": "Gujarat",
    "RegionCode": "VAD",
    "SubRegionCode": "VAD",
    "Latitude": "22.3133",
    "Longitude": "73.1813",
    "AvailableFormats": "2D|3D"
  },
  "PRTC": {
    "VenueCode": "PRTC",
    "VenueName": "Pratap Cinema: Vadodara",
    "VenueAddress": "Mangal Bazar, Mandvi, Near Sursagar Lake, Vadodara, Gujarat 390001, India",
    "City": "Vadodara",
    "State": "Gujarat",
    "RegionCode": "VAD",
    "SubRegionCode": "VAD",
    "Latitude": "22.3017",
    "Longitude": "73.2052",
    "AvailableFormats": "2D"
  },
  "RCVA": {
    "VenueCode": "RCVA",
    "VenueName": "Rajhans Cinemas: Vadodara",
    "VenueAddress": "Rajhans Business Hub, Raopura, Opp Raopura Tower, Vadodara, Gujarat 390001, India",
    "City": "Vadodara",
    "State": "Gujarat",
    "RegionCode": "VAD",
    "SubRegionCode": "VAD",
    "Latitude": "22.3037",
    "Longitude": "73.2014",
    "AvailableFormats": "2D"
  },
  "MTBN": {
    "VenueCode": "MTBN",
    "VenueName": "Mahendra Talkies: Barwani",
    "VenueAddress": "Moulana Azad Marg, Maa Vaishno Devi Road, Opposite Ganesh Temple, Near MPEB, Barwani, Madhya Pradesh 451551, India",
    "City": "Barwani",
    "State": "Madhya Pradesh",
    "RegionCode": "BRWN",
    "SubRegionCode": "BRWN",
    "Latitude": "22.0293",
    "Longitude": "74.9042",
    "AvailableFormats": "2D"
  },
  "LUCP": {
    "VenueCode": "LUCP",
    "VenueName": "The Lux Cinema: Petlad",
    "VenueAddress": "3rd Floor Yogi Icon, GJ SH 89, Shekhadi, Near Nayara Petrol Pump, Petlad, Gujarat 388450, India",
    "City": "Petlad",
    "State": "Gujarat",
    "RegionCode": "BORM",
    "SubRegionCode": "BORM",
    "Latitude": "22.4641",
    "Longitude": "72.7938",
    "AvailableFormats": "2D"
  },
  "FMPT": {
    "VenueCode": "FMPT",
    "VenueName": "Flamingo Cinemas: Petlad",
    "VenueAddress": "Novello Entertainment, Sunav Road, Near Sanatorium, Petlad, Gujarat 388450, India",
    "City": "Petlad",
    "State": "Gujarat",
    "RegionCode": "BORM",
    "SubRegionCode": "BORM",
    "Latitude": "22.4938",
    "Longitude": "72.8013",
    "AvailableFormats": "2D"
  },
  "JLSL": {
    "VenueCode": "JLSL",
    "VenueName": "Lalitha Sri Lalitha Theatre: Peddapuram",
    "VenueAddress": "7, Peddapuram Rajahmundry Main Road, Chadalada, Near Main Mosque, Peddapuram, Andhra Pradesh 533437, India",
    "City": "Peddapuram",
    "State": "Andhra Pradesh",
    "RegionCode": "PEDP",
    "SubRegionCode": "PEDP",
    "Latitude": "17.0801",
    "Longitude": "82.1326",
    "AvailableFormats": "2D"
  },
  "SBHA": {
    "VenueCode": "SBHA",
    "VenueName": "Sobha Theatre: Peddapuram",
    "VenueAddress": "Market Road, Near Peddapuram Library, Peddapuram, Andhra Pradesh 533437, India",
    "City": "Peddapuram",
    "State": "Andhra Pradesh",
    "RegionCode": "PEDP",
    "SubRegionCode": "PEDP",
    "Latitude": "17.0746",
    "Longitude": "82.1406",
    "AvailableFormats": "2D"
  },
  "SHRC": {
    "VenueCode": "SHRC",
    "VenueName": "Shriram Cinema: Shivpuri",
    "VenueAddress": "Fatehpur Road, Near Bypass Road, Shivpuri, Madhya Pradesh 473551, India",
    "City": "Shivpuri",
    "State": "Madhya Pradesh",
    "RegionCode": "SHIV",
    "SubRegionCode": "SHIV",
    "Latitude": "25.4151",
    "Longitude": "77.647",
    "AvailableFormats": "2D"
  },
  "AVPS": {
    "VenueCode": "AVPS",
    "VenueName": "Aashirvad Cineplexx: Pathanapuram",
    "VenueAddress": "3rd Floor,Town Center Mall, Near KSRTC Bus Stand, Pathanapuram, Kerala 689695, India",
    "City": "Pathanapuram",
    "State": "Kerala",
    "RegionCode": "PTPM",
    "SubRegionCode": "PTPM",
    "Latitude": "9.09231",
    "Longitude": "76.8557",
    "AvailableFormats": "2D"
  },
  "STPM": {
    "VenueCode": "STPM",
    "VenueName": "Seema Cineplex: Pathanapuram",
    "VenueAddress": "State Highway 8, K. P. Road, Opposite Evergreen Beauty Parlour, Pathanapuram, Kerala 689695, India",
    "City": "Pathanapuram",
    "State": "Kerala",
    "RegionCode": "PTPM",
    "SubRegionCode": "PTPM",
    "Latitude": "9.0931",
    "Longitude": "76.859",
    "AvailableFormats": "2D"
  },
  "ATRD": {
    "VenueCode": "ATRD",
    "VenueName": "Anna Theatre A/C: Erode",
    "VenueAddress": "Manikampalayam Housing Unit, Erode, Tamil Nadu, Near SSPE Cotton Mills, Erode, Tamil Nadu 638011, India",
    "City": "Erode",
    "State": "Tamil Nadu",
    "RegionCode": "EROD",
    "SubRegionCode": "EROD",
    "Latitude": "11.3451",
    "Longitude": "77.7087",
    "AvailableFormats": "2D"
  },
  "VTED": {
    "VenueCode": "VTED",
    "VenueName": "Sri Vishnu Theatre: Bhavani",
    "VenueAddress": "139/92, Main road, Thoppur-Mettur Dam-Bhavani-Erode Road, Opposite Bhavani Mosque, Erode, Tamil Nadu 638301, India",
    "City": "Erode",
    "State": "Tamil Nadu",
    "RegionCode": "EROD",
    "SubRegionCode": "EROD",
    "Latitude": "11.4414",
    "Longitude": "77.6823",
    "AvailableFormats": "2D"
  },
  "ACAI": {
    "VenueCode": "ACAI",
    "VenueName": "A Square Cinemas Annapoorani Dolby A/c 7.1 Sony 4K",
    "VenueAddress": "Vairapalayam Road, Thasildhar thottam, Near Aavin milk agency 83, Erode, Tamil Nadu 638001, India",
    "City": "Erode",
    "State": "Tamil Nadu",
    "RegionCode": "EROD",
    "SubRegionCode": "EROD",
    "Latitude": "11.3606",
    "Longitude": "77.7149",
    "AvailableFormats": "2D"
  },
  "SMAE": {
    "VenueCode": "SMAE",
    "VenueName": "Sri Murugan Theatre A/C DTS: Ammapettai",
    "VenueAddress": "National Highway 544H, Ammapettai, Near Hp Petrol Pump, Erode, Tamil Nadu 638311, India",
    "City": "Erode",
    "State": "Tamil Nadu",
    "RegionCode": "EROD",
    "SubRegionCode": "EROD",
    "Latitude": "11.6248",
    "Longitude": "77.7446",
    "AvailableFormats": "2D"
  },
  "VMAT": {
    "VenueCode": "VMAT",
    "VenueName": "VN Palace (Veeranarayana): Tanuku",
    "VenueAddress": "Atthili - Tanuku Road, Venkatarayapuram, Tanuku, Andhra Pradesh 534211, India",
    "City": "Tanuku",
    "State": "Andhra Pradesh",
    "RegionCode": "TANK",
    "SubRegionCode": "TANK",
    "Latitude": "16.7479",
    "Longitude": "81.6816",
    "AvailableFormats": "2D"
  },
  "LKCT": {
    "VenueCode": "LKCT",
    "VenueName": "Lakshmi Complex: Tanuku",
    "VenueAddress": "Lakshmi Complex, Velpur Road,Venkiatrayapuram, Near Kadharawara Sweet Shop, Tanuku, Andhra Pradesh 534211, India",
    "City": "Tanuku",
    "State": "Andhra Pradesh",
    "RegionCode": "TADP",
    "SubRegionCode": "TADP",
    "Latitude": "16.7493",
    "Longitude": "81.6831",
    "AvailableFormats": "2D"
  },
  "JTVK": {
    "VenueCode": "JTVK",
    "VenueName": "Sri Venkateswara Complex: Tanuku",
    "VenueAddress": "NH16, Ngo Colony, Palangi, Near Sri Vijayadurga temple, Tanuku, Andhra Pradesh 534211, India",
    "City": "Tanuku",
    "State": "Andhra Pradesh",
    "RegionCode": "TADP",
    "SubRegionCode": "TADP",
    "Latitude": "16.7597",
    "Longitude": "81.691",
    "AvailableFormats": "2D|3D"
  },
  "PRTY": {
    "VenueCode": "PRTY",
    "VenueName": "Pratyusha Complex: Tanuku",
    "VenueAddress": "Venkatarayapuram, Near Masjid E Hanfipet, Tanuku, Andhra Pradesh 534211, India",
    "City": "Tanuku",
    "State": "Andhra Pradesh",
    "RegionCode": "TADP",
    "SubRegionCode": "TADP",
    "Latitude": "16.7523",
    "Longitude": "81.687",
    "AvailableFormats": "2D"
  },
  "GETT": {
    "VenueCode": "GETT",
    "VenueName": "Geeta Talkies: Hindaun City",
    "VenueAddress": "SH 1, Keshav Pura, Opposite Government Girls Senior Secondary School, Hindaun City, Rajasthan 322230, India",
    "City": "Hindaun City",
    "State": "Rajasthan",
    "RegionCode": "HIND",
    "SubRegionCode": "HIND",
    "Latitude": "26.7284",
    "Longitude": "77.0333",
    "AvailableFormats": "2D"
  },
  "ESAP": {
    "VenueCode": "ESAP",
    "VenueName": "E-SQUARE Anusaya: Parbhani",
    "VenueAddress": "Anusaya, Gangakhed Road, Parbhani - Gangakhed State Highway, Near Flyover, Parbhani, Maharashtra 431401, India",
    "City": "Parbhani",
    "State": "Maharashtra",
    "RegionCode": "PARB",
    "SubRegionCode": "PARB",
    "Latitude": "19.2574",
    "Longitude": "76.7645",
    "AvailableFormats": "2D|3D"
  },
  "NCPM": {
    "VenueCode": "NCPM",
    "VenueName": "Naresh Cineplex: Parbhani",
    "VenueAddress": "National Highway 222, Masoom Colony, Jintoor Road, Parbhani, Maharashtra 431401, India",
    "City": "Parbhani",
    "State": "Maharashtra",
    "RegionCode": "PARB",
    "SubRegionCode": "PARB",
    "Latitude": "19.2664",
    "Longitude": "76.7624",
    "AvailableFormats": "2D"
  },
  "PCPA": {
    "VenueCode": "PCPA",
    "VenueName": "PVR: VRC, Patiala",
    "VenueAddress": "2nd Floor VRC City Multiplex Mall, Near ITBP Complex, Rajpura Road,  Heera Bagh Choura, Patiala, Punjab 147001, India",
    "City": "Patiala",
    "State": "Punjab",
    "RegionCode": "PATI",
    "SubRegionCode": "PATI",
    "Latitude": "30.3402",
    "Longitude": "76.4323",
    "AvailableFormats": "2D|3D"
  },
  "MMOM": {
    "VenueCode": "MMOM",
    "VenueName": "MovieMax: Omaxe Mall, Patiala (SRS Earlier)",
    "VenueAddress": "MovieMax, 2nd Floor, Omaxe Mall, Near Kali Mata Mandir, Patiala, Punjab 147001, India",
    "City": "Patiala",
    "State": "Punjab",
    "RegionCode": "PATI",
    "SubRegionCode": "PATI",
    "Latitude": "30.3373",
    "Longitude": "76.3943",
    "AvailableFormats": "2D|3D"
  },
  "PHUP": {
    "VenueCode": "PHUP",
    "VenueName": "Phul Cinema: Patiala",
    "VenueAddress": "40-D, Fountain Chowk, Chotti Baradari Road, Baradari, Patiala, Punjab 147001, India",
    "City": "Patiala",
    "State": "Punjab",
    "RegionCode": "PATI",
    "SubRegionCode": "PATI",
    "Latitude": "30.3312",
    "Longitude": "76.3901",
    "AvailableFormats": "2D"
  },
  "CCPI": {
    "VenueCode": "CCPI",
    "VenueName": "Capital Cinema: Patiala",
    "VenueAddress": "Mall Road, Near Court Complex, Patiala, Punjab 147001, India",
    "City": "Patiala",
    "State": "Punjab",
    "RegionCode": "PATI",
    "SubRegionCode": "PATI",
    "Latitude": "30.3392",
    "Longitude": "76.3994",
    "AvailableFormats": "2D"
  },
  "CNTD": {
    "VenueCode": "CNTD",
    "VenueName": "Connplex Cinemas (Signature): Sri Sri",
    "VenueAddress": "Housing Board Colony, Sasi College Road, Tadepalligudem, Andhra Pradesh 534101, India",
    "City": "Tadepalligudem",
    "State": "Andhra Pradesh",
    "RegionCode": "TADP",
    "SubRegionCode": "TADP",
    "Latitude": "16.8194",
    "Longitude": "81.524",
    "AvailableFormats": "2D"
  },
  "NLJR": {
    "VenueCode": "NLJR",
    "VenueName": "Sri Lakshmi Multiplex (Nova Cinemaz): Nallajerla",
    "VenueAddress": "Rajahmundry - Bhadrachalam Highway, Opp to Buchalupond, Nallajerla, Andhra Pradesh 534111, India",
    "City": "Nallajerla",
    "State": "Andhra Pradesh",
    "RegionCode": "TADP",
    "SubRegionCode": "TADP",
    "Latitude": "16.9555",
    "Longitude": "81.4172",
    "AvailableFormats": "2D"
  },
  "SRNG": {
    "VenueCode": "SRNG",
    "VenueName": "Sri Rangamahal Theatre: Tadepalligudem",
    "VenueAddress": "Sheshamahal Road, Sali Peta, Karri Satyavathi Nagar, Tadepalligudem, Andhra Pradesh 534101, India",
    "City": "Tadepalligudem",
    "State": "Andhra Pradesh",
    "RegionCode": "TADP",
    "SubRegionCode": "TADP",
    "Latitude": "16.8128",
    "Longitude": "81.53",
    "AvailableFormats": "2D"
  },
  "MHAL": {
    "VenueCode": "MHAL",
    "VenueName": "Sri Seshmahal Theatre: Tadepalligudem",
    "VenueAddress": "Sheshamahal Road, Karri Satyavathi Nagar, Tadepalligudem, Andhra Pradesh 534101, India",
    "City": "Tadepalligudem",
    "State": "Andhra Pradesh",
    "RegionCode": "TADP",
    "SubRegionCode": "TADP",
    "Latitude": "16.8126",
    "Longitude": "81.5299",
    "AvailableFormats": "2D"
  },
  "PNSM": {
    "VenueCode": "PNSM",
    "VenueName": "PVR: Nexus Mall Centre City, Mysuru",
    "VenueAddress": "3rd Floor, Hyderali Road, Mysuru (Mysore), Karnataka 570010, India",
    "City": "Mysuru (Mysore)",
    "State": "Karnataka",
    "RegionCode": "MYS",
    "SubRegionCode": "MYS",
    "Latitude": "12.3187",
    "Longitude": "76.6655",
    "AvailableFormats": "2D|3D"
  },
  "DRMY": {
    "VenueCode": "DRMY",
    "VenueName": "DRC Cinemas: BM Habitat Mall",
    "VenueAddress": "Gokulam Road, Jayalakshmipuram, Behind BM Hospital, Mysuru (Mysore), Karnataka 570012, India",
    "City": "Mysuru (Mysore)",
    "State": "Karnataka",
    "RegionCode": "MYS",
    "SubRegionCode": "MYS",
    "Latitude": "12.3221",
    "Longitude": "76.6208",
    "AvailableFormats": "2D|3D"
  },
  "CCMU": {
    "VenueCode": "CCMU",
    "VenueName": "Mysuru VISION Cinemas, Behind GRS Fantasy Park",
    "VenueAddress": "No 119 Metagalli Industrial Area, Metagalli, Behind GRS Fantasy Park, Opposite J K Golden Embassy, Mysuru (Mysore), Karnataka 570016, India",
    "City": "Mysuru (Mysore)",
    "State": "Karnataka",
    "RegionCode": "MYS",
    "SubRegionCode": "MYS",
    "Latitude": "12.3585",
    "Longitude": "76.6361",
    "AvailableFormats": "2D|3D"
  },
  "SCMY": {
    "VenueCode": "SCMY",
    "VenueName": "INOX: Mall of Mysuru",
    "VenueAddress": "Plot No. C1, 3rd Floor, Mall of Mysore, MG Road, Nazarbad Mohalla, Opposite Mysore Golf Club, Mysuru (Mysore), Karnataka 570010, India",
    "City": "Mysuru (Mysore)",
    "State": "Karnataka",
    "RegionCode": "MYS",
    "SubRegionCode": "MYS",
    "Latitude": "12.298",
    "Longitude": "76.6644",
    "AvailableFormats": "2D|3D"
  },
  "PVSY": {
    "VenueCode": "PVSY",
    "VenueName": "PVR: Garuda Mall, Albert Victor Road, Mysuru",
    "VenueAddress": "3rd Floor, Garuda Mall, Albert Victor Road, Agrahara, Mysuru (Mysore), Karnataka 570001, India",
    "City": "Mysuru (Mysore)",
    "State": "Karnataka",
    "RegionCode": "MYS",
    "SubRegionCode": "MYS",
    "Latitude": "12.3092",
    "Longitude": "76.6538",
    "AvailableFormats": "2D"
  },
  "SDLM": {
    "VenueCode": "SDLM",
    "VenueName": "Sangam Digital 2K Theatre Dolby 7.1: Mysuru",
    "VenueAddress": "Chandraguptha Road, Lashkar Mohalla, Mysuru (Mysore), Karnataka 570001, India",
    "City": "Mysuru (Mysore)",
    "State": "Karnataka",
    "RegionCode": "MYS",
    "SubRegionCode": "MYS",
    "Latitude": "12.3106",
    "Longitude": "76.6571",
    "AvailableFormats": "2D"
  },
  "ICCM": {
    "VenueCode": "ICCM",
    "VenueName": "INOX: Centro, Mysore",
    "VenueAddress": "INOX Leisure Ltd, 3rd Floor, Centro, Bangalore-Nilgiri Road, Mysuru (Mysore), Karnataka 570001, India",
    "City": "Mysuru (Mysore)",
    "State": "Karnataka",
    "RegionCode": "MYS",
    "SubRegionCode": "MYS",
    "Latitude": "12.3098",
    "Longitude": "76.6585",
    "AvailableFormats": "2D|3D"
  },
  "PYSU": {
    "VenueCode": "PYSU",
    "VenueName": "Prabha Theatre: Mysuru",
    "VenueAddress": "Hanumantha Rao Street, Post Box No. 62, Opposite Hotel Dasaprakash, Old Bank Road, Mysuru (Mysore), Karnataka 570001, India",
    "City": "Mysuru (Mysore)",
    "State": "Karnataka",
    "RegionCode": "MYS",
    "SubRegionCode": "MYS",
    "Latitude": "12.3112",
    "Longitude": "76.6538",
    "AvailableFormats": "2D"
  },
  "GATM": {
    "VenueCode": "GATM",
    "VenueName": "Gayathri Talkies: Mysuru, Christie Solaria 2K",
    "VenueAddress": "Chamaraja Double Road, K.R.Mohalla, Agrahara, Mysuru (Mysore), Karnataka 570024, India",
    "City": "Mysuru (Mysore)",
    "State": "Karnataka",
    "RegionCode": "MYS",
    "SubRegionCode": "MYS",
    "Latitude": "12.3018",
    "Longitude": "76.651",
    "AvailableFormats": "2D"
  },
  "WOTM": {
    "VenueCode": "WOTM",
    "VenueName": "Woodlands Digital 2K Cinema: Mysuru",
    "VenueAddress": "Woodland Theatre (Woodlands Picture House), Curzon Park Road, K.R.Circle, Opp Lido Theatre, Mysuru (Mysore), Karnataka 570001, India",
    "City": "Mysuru (Mysore)",
    "State": "Karnataka",
    "RegionCode": "MYS",
    "SubRegionCode": "MYS",
    "Latitude": "12.3087",
    "Longitude": "76.659",
    "AvailableFormats": "2D"
  },
  "RKTS": {
    "VenueCode": "RKTS",
    "VenueName": "Rajkamal Digital 2K Laser Projection: Mysore",
    "VenueAddress": "Yelwal Road, Shivarampet, Near Balaji palace Hotel, Mysuru (Mysore), Karnataka 570001, India",
    "City": "Mysuru (Mysore)",
    "State": "Karnataka",
    "RegionCode": "MYS",
    "SubRegionCode": "MYS",
    "Latitude": "12.3109",
    "Longitude": "76.6491",
    "AvailableFormats": "2D"
  },
  "PMTY": {
    "VenueCode": "PMTY",
    "VenueName": "Padma Talkies: Mysuru",
    "VenueAddress": "Ramachandra Agrahara, Near 101 Ganapathi Temple, Mysuru (Mysore), Karnataka 570004, India",
    "City": "Mysuru (Mysore)",
    "State": "Karnataka",
    "RegionCode": "MYS",
    "SubRegionCode": "MYS",
    "Latitude": "12.2964",
    "Longitude": "76.6521",
    "AvailableFormats": "2D"
  },
  "LYMS": {
    "VenueCode": "LYMS",
    "VenueName": "Lido Theatre: Mysuru",
    "VenueAddress": "Mandi Mohalla, Bangalore Nilgiri Road, Mysuru (Mysore), Karnataka 570001, India",
    "City": "Mysuru (Mysore)",
    "State": "Karnataka",
    "RegionCode": "MYS",
    "SubRegionCode": "MYS",
    "Latitude": "12.3088",
    "Longitude": "76.6595",
    "AvailableFormats": "2D"
  },
  "TGCA": {
    "VenueCode": "TGCA",
    "VenueName": "Ganga Cine House 4K Dolby Atmos: Attingal",
    "VenueAddress": "Mamom, Attingal, Trivandrum, Kerala 695103, India",
    "City": "Trivandrum",
    "State": "Kerala",
    "RegionCode": "VKAL",
    "SubRegionCode": "VKAL",
    "Latitude": "8.68219",
    "Longitude": "76.8235",
    "AvailableFormats": "2D"
  },
  "DSTA": {
    "VenueCode": "DSTA",
    "VenueName": "Dreams: Attingal",
    "VenueAddress": "Kanyakumari Highway, Panvel Kochi, Near Reliance trends, Trivandrum, Kerala 695103, India",
    "City": "Trivandrum",
    "State": "Kerala",
    "RegionCode": "VKAL",
    "SubRegionCode": "VKAL",
    "Latitude": "8.68464",
    "Longitude": "76.8232",
    "AvailableFormats": "2D"
  },
  "CNGE": {
    "VenueCode": "CNGE",
    "VenueName": "Greenfield Moviemax Cinemas: Trivandrum",
    "VenueAddress": "Green Field Stadium, Karyavattom.P.O, Near The Sports Hub, Trivandrum, Kerala 695581, India",
    "City": "Trivandrum",
    "State": "Kerala",
    "RegionCode": "VKAL",
    "SubRegionCode": "VKAL",
    "Latitude": "8.57061",
    "Longitude": "76.8841",
    "AvailableFormats": "2D"
  },
  "VSTG": {
    "VenueCode": "VSTG",
    "VenueName": "GTracks Screen 1- Sony 4K: Kadinamkulam",
    "VenueAddress": "Puthukurichy (P.O), Kaniyapuram, Near Kaniyapuram Government School, Trivandrum, Kerala 695303, India",
    "City": "Trivandrum",
    "State": "Kerala",
    "RegionCode": "VKAL",
    "SubRegionCode": "VKAL",
    "Latitude": "8.6045",
    "Longitude": "76.8193",
    "AvailableFormats": "2D"
  },
  "GTCK": {
    "VenueCode": "GTCK",
    "VenueName": "GTracks Screen 2 Sony 4K: Kadinamkulam",
    "VenueAddress": "Puthukurichy (P.O), Kaniyapuram, Near V Tracks Cinemas, Trivandrum, Kerala 695303, India",
    "City": "Trivandrum",
    "State": "Kerala",
    "RegionCode": "VKAL",
    "SubRegionCode": "VKAL",
    "Latitude": "8.60425",
    "Longitude": "76.8156",
    "AvailableFormats": "2D"
  },
  "TGNT": {
    "VenueCode": "TGNT",
    "VenueName": "New Theatre 4K RGB LASER Dolby Atmos: Trivandrum",
    "VenueAddress": "Near Railway Station, Thampanoor, Aristo Rd, Trivandrum, Kerala 695001, India",
    "City": "Trivandrum",
    "State": "Kerala",
    "RegionCode": "VKAL",
    "SubRegionCode": "VKAL",
    "Latitude": "8.48772",
    "Longitude": "76.9552",
    "AvailableFormats": "2D"
  },
  "ASLC": {
    "VenueCode": "ASLC",
    "VenueName": "Ariesplex SL Cinemas Cinionic Dolby Atmos",
    "VenueAddress": "Sahodara Samajam Road, near OverBridge, Thampanoor, Thiruvananthapuram, Trivandrum, Kerala 695035, India",
    "City": "Trivandrum",
    "State": "Kerala",
    "RegionCode": "VKAL",
    "SubRegionCode": "VKAL",
    "Latitude": "8.48853",
    "Longitude": "76.9461",
    "AvailableFormats": "2D"
  },
  "SSST": {
    "VenueCode": "SSST",
    "VenueName": "Sree Kaleeswary Sree Saraswathy 2K-3D: Kaliyikkav",
    "VenueAddress": "SMB Complex, Parasala PO, Kovalam Road, Kaliyikkavila, Trivandrum, Kerala 695502, India",
    "City": "Trivandrum",
    "State": "Kerala",
    "RegionCode": "VKAL",
    "SubRegionCode": "VKAL",
    "Latitude": "8.33161",
    "Longitude": "77.1645",
    "AvailableFormats": "2D"
  },
  "KBTT": {
    "VenueCode": "KBTT",
    "VenueName": "Kalabhavan Theatre Triple Beam 3D: Trivandrum",
    "VenueAddress": "Womens College Road, Chalachitra Kalabhavan CV Raman Pillai Road, Near Dianby Kids World, Trivandrum, Kerala 695014, India",
    "City": "Trivandrum",
    "State": "Kerala",
    "RegionCode": "VKAL",
    "SubRegionCode": "VKAL",
    "Latitude": "8.49955",
    "Longitude": "76.958",
    "AvailableFormats": "2D"
  },
  "HKCP": {
    "VenueCode": "HKCP",
    "VenueName": "HK Cinemas: Pothencode",
    "VenueAddress": "Kazhakoottam, Kilimanoor Road, Near State Bank of India, Trivandrum, Kerala 695584, India",
    "City": "Trivandrum",
    "State": "Kerala",
    "RegionCode": "VKAL",
    "SubRegionCode": "VKAL",
    "Latitude": "8.62134",
    "Longitude": "76.8995",
    "AvailableFormats": "2D"
  },
  "SWLC": {
    "VenueCode": "SWLC",
    "VenueName": "Swaram Layam Cinemas: Kattakada",
    "VenueAddress": "Kattakkada, Choondupalaka, Junction, Near Matha College Of Medical Technology, Trivandrum, Kerala 695572, India",
    "City": "Trivandrum",
    "State": "Kerala",
    "RegionCode": "VKAL",
    "SubRegionCode": "VKAL",
    "Latitude": "8.50461",
    "Longitude": "77.0886",
    "AvailableFormats": "2D"
  },